[
    {
        "name": "Xiaomi",
        "address": "Xiaomi, 6, проспект Вернадского (дублёр), район Раменки, Москва, Центральный федеральный округ, 119311, Россия",
        "lat": 55.6921427,
        "lng": 37.5271404,
        "percent": "1"
    },
    {
        "name": "Xiaomi",
        "address": "Xiaomi, 2, Пресненская набережная, Пресненский район, Москва, Центральный федеральный округ, 123112, Россия",
        "lat": 55.7483876,
        "lng": 37.5389361,
        "percent": "1"
    },
    {
        "name": "Xiaomi",
        "address": "Xiaomi, Мичуринский проспект, Олимпийская деревня, Тропарёво-Никулино, Москва, Центральный федеральный округ, 119332, Россия",
        "lat": 55.6776842,
        "lng": 37.4675471,
        "percent": "1"
    },
    {
        "name": "Xiaomi",
        "address": "Xiaomi, Третье транспортное кольцо, Даниловский район, Москва, Центральный федеральный округ, 115191, Россия",
        "lat": 55.7044831,
        "lng": 37.6411316,
        "percent": "1"
    },
    {
        "name": "Xiaomi",
        "address": "Xiaomi, проспект Вернадского, Тропарёво-Никулино, Москва, Центральный федеральный округ, 117571, Россия",
        "lat": 55.6628951,
        "lng": 37.4816394,
        "percent": "1"
    },
    {
        "name": "Xiaomi",
        "address": "Xiaomi, Третье транспортное кольцо, Канатчиково, Донской район, Москва, Центральный федеральный округ, 117449, Россия",
        "lat": 55.7068286,
        "lng": 37.5924683,
        "percent": "1"
    },
    {
        "name": "Xiaomi",
        "address": "Xiaomi, 2, площадь Киевского Вокзала, район Дорогомилово, Москва, Центральный федеральный округ, 121059, Россия",
        "lat": 55.7445443,
        "lng": 37.5664561,
        "percent": "1"
    },
    {
        "name": "Xiaomi",
        "address": "Xiaomi, улица Барклая, Фили, район Филёвский Парк, Москва, Центральный федеральный округ, 121096, Россия",
        "lat": 55.743145,
        "lng": 37.4995726,
        "percent": "1"
    },
    {
        "name": "Xiaomi",
        "address": "Xiaomi, 57, Кутузовский проспект, Давыдково, район Фили-Давыдково, Москва, Центральный федеральный округ, 121352, Россия",
        "lat": 55.7278502,
        "lng": 37.4764413,
        "percent": "1"
    },
    {
        "name": "Xiaomi",
        "address": "Xiaomi, 13А, Кировоградская улица, район Чертаново Центральное, Москва, Центральный федеральный округ, 117519, Россия",
        "lat": 55.6120355,
        "lng": 37.6071533,
        "percent": "1"
    },
    {
        "name": "Miele",
        "address": "Miele, 4, Дмитровский проезд (дублёр), Тимирязевский район, Москва, Центральный федеральный округ, 127422, Россия",
        "lat": 55.8100683,
        "lng": 37.5780831,
        "percent": "7"
    },
    {
        "name": "Miele",
        "address": "Miele, 4 к1, Можайское шоссе, Можайский, Можайский район, Москва, Центральный федеральный округ, 121374, Россия",
        "lat": 55.7232911,
        "lng": 37.4443659,
        "percent": "7"
    },
    {
        "name": "Miele",
        "address": "Miele, Проспект Мира (дублёр), Останкинский район, Москва, Центральный федеральный округ, 129085, Россия",
        "lat": 55.8022646,
        "lng": 37.6351687,
        "percent": "7"
    },
    {
        "name": "Miele",
        "address": "Miele, Кутузовский проспект, район Дорогомилово, Москва, Центральный федеральный округ, 121165, Россия",
        "lat": 55.7406444,
        "lng": 37.5381683,
        "percent": "7"
    },
    {
        "name": "Miele",
        "address": "Miele, 58, Нахимовский проспект, Академический район, Москва, Центральный федеральный округ, 117335, Россия",
        "lat": 55.6836137,
        "lng": 37.5539208,
        "percent": "7"
    },
    {
        "name": "Goods.ru",
        "address": "Смешанные товары, Вокзальная улица, Луч, городской округ Чехов, Московская область, Центральный федеральный округ, 142306, Россия",
        "lat": 55.0932672,
        "lng": 37.4919779,
        "percent": "2.3"
    },
    {
        "name": "Мегафон",
        "address": "МегаФон, 10 с3, Огородный проезд, Бутырский район, Москва, Центральный федеральный округ, 127474, Россия",
        "lat": 55.8132922,
        "lng": 37.6032628,
        "percent": "3"
    },
    {
        "name": "Мегафон",
        "address": "МегаФон, 7, площадь Тверская Застава, Тверской район, Москва, Центральный федеральный округ, 125047, Россия",
        "lat": 55.77673,
        "lng": 37.5815877,
        "percent": "3"
    },
    {
        "name": "Мегафон",
        "address": "Мегафон, 97, Бутырская улица, Савёловский район, Москва, Центральный федеральный округ, 127015, Россия",
        "lat": 55.8077016,
        "lng": 37.5800075,
        "percent": "3"
    },
    {
        "name": "Мегафон",
        "address": "МегаФон, 2/18, Бутырская улица, Бутырский район, Москва, Центральный федеральный округ, 127015, Россия",
        "lat": 55.7942391,
        "lng": 37.5867898,
        "percent": "3"
    },
    {
        "name": "Мегафон",
        "address": "МегаФон, 20, Шереметьевская улица, район Марьина Роща, Москва, Центральный федеральный округ, 127521, Россия",
        "lat": 55.8034651,
        "lng": 37.6185289,
        "percent": "3"
    },
    {
        "name": "Мегафон",
        "address": "МегаФон, 6 к1, Шереметьевская улица, район Марьина Роща, Москва, Центральный федеральный округ, 129594, Россия",
        "lat": 55.7961407,
        "lng": 37.6170549,
        "percent": "3"
    },
    {
        "name": "Мегафон",
        "address": "МегаФон, 23, Новослободская улица, Тверской район, Москва, Центральный федеральный округ, 127006, Россия",
        "lat": 55.7815057,
        "lng": 37.5986676,
        "percent": "3"
    },
    {
        "name": "Мегафон",
        "address": "МегаФон, Сигнальный проезд, район Отрадное, Москва, Центральный федеральный округ, 127106, Россия",
        "lat": 55.8484907,
        "lng": 37.5906631,
        "percent": "3"
    },
    {
        "name": "Мегафон",
        "address": "МегаФон, Оружейный переулок, Тверской район, Москва, Центральный федеральный округ, 127006, Россия",
        "lat": 55.7733582,
        "lng": 37.6063862,
        "percent": "3"
    },
    {
        "name": "Мегафон",
        "address": "МегаФон, 112, проспект Мира, Алексеевский район, Москва, Центральный федеральный округ, 129626, Россия",
        "lat": 55.8071591,
        "lng": 37.6376352,
        "percent": "3"
    },
    {
        "name": "LG",
        "address": "LG, 16А с4, Ленинградское шоссе, Войковский район, Москва, Центральный федеральный округ, 125171, Россия",
        "lat": 55.8242619,
        "lng": 37.4949708,
        "percent": "4"
    },
    {
        "name": "Samsung",
        "address": "Samsung, 6, проспект Вернадского (дублёр), район Раменки, Москва, Центральный федеральный округ, 119311, Россия",
        "lat": 55.6924625,
        "lng": 37.5276485,
        "percent": "2"
    },
    {
        "name": "Samsung",
        "address": "Samsung, Большая Тульская улица, Даниловский район, Москва, Центральный федеральный округ, 115191, Россия",
        "lat": 55.708597,
        "lng": 37.622091,
        "percent": "2"
    },
    {
        "name": "Samsung",
        "address": "Samsung, 86А, проспект Вернадского, Тропарёво-Никулино, Москва, Центральный федеральный округ, 117571, Россия",
        "lat": 55.663019,
        "lng": 37.480993,
        "percent": "2"
    },
    {
        "name": "Samsung",
        "address": "Samsung, 2, площадь Киевского Вокзала, район Дорогомилово, Москва, Центральный федеральный округ, 121059, Россия",
        "lat": 55.744632,
        "lng": 37.566072,
        "percent": "2"
    },
    {
        "name": "Samsung",
        "address": "Samsung, Староможайское шоссе, Давыдково, район Фили-Давыдково, Москва, Центральный федеральный округ, 121352, Россия",
        "lat": 55.727927,
        "lng": 37.476169,
        "percent": "2"
    },
    {
        "name": "Samsung",
        "address": "Samsung, улица Красного Маяка, район Чертаново Центральное, Москва, Центральный федеральный округ, 117519, Россия",
        "lat": 55.612182,
        "lng": 37.607026,
        "percent": "2"
    },
    {
        "name": "Samsung",
        "address": "Samsung, Кожевническая улица, район Замоскворечье, Москва, Центральный федеральный округ, 115114, Россия",
        "lat": 55.7311602,
        "lng": 37.6402477,
        "percent": "2"
    },
    {
        "name": "Samsung",
        "address": "Samsung, 22, Тверская улица, 49, Тверской район, Москва, Центральный федеральный округ, 123104, Россия",
        "lat": 55.7677266,
        "lng": 37.600537,
        "percent": "2"
    },
    {
        "name": "Samsung",
        "address": "Samsung, Ветошный переулок, 4, Китай-город, Тверской район, Москва, Центральный федеральный округ, 109012, Россия",
        "lat": 55.7547445,
        "lng": 37.6222944,
        "percent": "2"
    },
    {
        "name": "Samsung",
        "address": "Samsung, с1, 21-й км Калужского шоссе, поселение Сосенское, Москва, Центральный федеральный округ, 142704, Россия",
        "lat": 55.605138,
        "lng": 37.48961,
        "percent": "2"
    },
    {
        "name": "МТС",
        "address": "МТС, 6, Венёвская улица, Гавриково, район Южное Бутово, Москва, Центральный федеральный округ, 117624, Россия",
        "lat": 55.547804,
        "lng": 37.5433608,
        "percent": "4.3"
    },
    {
        "name": "МТС",
        "address": "МТС, 4, Венёвская улица, Гавриково, район Южное Бутово, Москва, Центральный федеральный округ, 117624, Россия",
        "lat": 55.5485977,
        "lng": 37.542511,
        "percent": "4.3"
    },
    {
        "name": "МТС",
        "address": "МТС, 6, Куликовская улица, район Северное Бутово, Москва, Центральный федеральный округ, 117628, Россия",
        "lat": 55.5742984,
        "lng": 37.5651289,
        "percent": "4.3"
    },
    {
        "name": "МТС",
        "address": "МТС, 1, бульвар Дмитрия Донского, Жилой комплекс «Синяя Птица», район Северное Бутово, Москва, Центральный федеральный округ, 117628, Россия",
        "lat": 55.5749015,
        "lng": 37.580276,
        "percent": "4.3"
    },
    {
        "name": "МТС",
        "address": "МТС, 16, улица 40 лет Октября, Щербинка, городской округ Щербинка, Москва, Центральный федеральный округ, 142171, Россия",
        "lat": 55.5119002,
        "lng": 37.5737294,
        "percent": "4.3"
    },
    {
        "name": "МТС",
        "address": "МТС, улица 40 лет Октября, Щербинка, городской округ Щербинка, Москва, Центральный федеральный округ, 142171, Россия",
        "lat": 55.5105989,
        "lng": 37.5634772,
        "percent": "4.3"
    },
    {
        "name": "МТС",
        "address": "МТС, 2 с2, Новоясеневский проспект, район Ясенево, Москва, Центральный федеральный округ, 117632, Россия",
        "lat": 55.6172882,
        "lng": 37.5075356,
        "percent": "4.3"
    },
    {
        "name": "МТС",
        "address": "МТС, 143А, Варшавское шоссе (дублёр), район Чертаново Южное, Москва, Центральный федеральный округ, 117405, Россия",
        "lat": 55.5837391,
        "lng": 37.5987988,
        "percent": "4.3"
    },
    {
        "name": "МТС",
        "address": "МТС, 109 к2, Профсоюзная улица, район Коньково, Москва, Центральный федеральный округ, 117647, Россия",
        "lat": 55.6327086,
        "lng": 37.5197727,
        "percent": "4.3"
    },
    {
        "name": "МТС",
        "address": "МТС, 51, Чечёрский проезд, поселение Воскресенское, Москва, Центральный федеральный округ, 117041, Россия",
        "lat": 55.5238533,
        "lng": 37.5175667,
        "percent": "4.3"
    },
    {
        "name": "Huawei",
        "address": "Huawei, 28 к1, Тверская улица, 49, Тверской район, Москва, Центральный федеральный округ, 123104, Россия",
        "lat": 55.768902,
        "lng": 37.5982623,
        "percent": "1.5"
    },
    {
        "name": "Huawei",
        "address": "Huawei, площадь Курского Вокзала, Басманный район, Москва, Центральный федеральный округ, 105064, Россия",
        "lat": 55.7574116,
        "lng": 37.6589469,
        "percent": "1.5"
    },
    {
        "name": "Huawei",
        "address": "Huawei, площадь Курского Вокзала, Басманный район, Москва, Центральный федеральный округ, 105064, Россия",
        "lat": 55.7573526,
        "lng": 37.6593759,
        "percent": "1.5"
    },
    {
        "name": "Huawei",
        "address": "Huawei, Крылатская улица, Крылатское, район Крылатское, Москва, Центральный федеральный округ, 121614, Россия",
        "lat": 55.7707155,
        "lng": 37.4230316,
        "percent": "1.5"
    },
    {
        "name": "Huawei",
        "address": "Huawei, 4, Ходынский бульвар, Ходынское поле, Хорошёвский район, Москва, Центральный федеральный округ, 125252, Россия",
        "lat": 55.7903166,
        "lng": 37.531953,
        "percent": "1.5"
    },
    {
        "name": "Huawei",
        "address": "Huawei, улица Красного Маяка, район Чертаново Центральное, Москва, Центральный федеральный округ, 117519, Россия",
        "lat": 55.6120957,
        "lng": 37.6073169,
        "percent": "1.5"
    },
    {
        "name": "Huawei",
        "address": "Huawei, улица Красного Маяка, район Чертаново Центральное, Москва, Центральный федеральный округ, 117519, Россия",
        "lat": 55.6119925,
        "lng": 37.6073545,
        "percent": "1.5"
    },
    {
        "name": "Electrolux",
        "address": "Electrolux, 1, Кожевнический проезд, район Замоскворечье, Москва, Центральный федеральный округ, 115114, Россия",
        "lat": 55.7313451,
        "lng": 37.6456082,
        "percent": "5"
    },
    {
        "name": "Holodilnik.ru",
        "address": "Холодильник.ру, Большая Дорогомиловская улица, район Дорогомилово, Москва, Центральный федеральный округ, 121248, Россия",
        "lat": 55.7455294,
        "lng": 37.5641734,
        "percent": "1.5"
    },
    {
        "name": "Holodilnik.ru",
        "address": "Холодильник.ру, Ленинградское шоссе, Химки, городской округ Химки, Московская область, Центральный федеральный округ, 141501, Россия",
        "lat": 55.9686296,
        "lng": 37.3214326,
        "percent": "1.5"
    },
    {
        "name": "М.Видео",
        "address": "М.Видео, 13, Большая Тульская улица, Даниловский район, Москва, Центральный федеральный округ, 115191, Россия",
        "lat": 55.7089384,
        "lng": 37.622227,
        "percent": "2.8"
    },
    {
        "name": "М.Видео",
        "address": "М.Видео, Большая Тульская улица, Даниловский район, Москва, Центральный федеральный округ, 115191, Россия",
        "lat": 55.708391,
        "lng": 37.622015,
        "percent": "2.8"
    },
    {
        "name": "М.Видео",
        "address": "M.Видео, 7-я Кожуховская улица, Кожухово, Южнопортовый район, Москва, Центральный федеральный округ, 115193, Россия",
        "lat": 55.7102083,
        "lng": 37.6743947,
        "percent": "2.8"
    },
    {
        "name": "М.Видео",
        "address": "М.Видео, 18, Автозаводская улица, Даниловский район, Москва, Центральный федеральный округ, 115280, Россия",
        "lat": 55.7052534,
        "lng": 37.6374992,
        "percent": "2.8"
    },
    {
        "name": "М.Видео",
        "address": "М.Видео, 8, проспект Андропова, Даниловский район, Москва, Центральный федеральный округ, 115432, Россия",
        "lat": 55.6956037,
        "lng": 37.6650429,
        "percent": "2.8"
    },
    {
        "name": "М.Видео",
        "address": "М.Видео, проспект Андропова, Даниловский район, Москва, Центральный федеральный округ, 115432, Россия",
        "lat": 55.69581,
        "lng": 37.665762,
        "percent": "2.8"
    },
    {
        "name": "М.Видео",
        "address": "М.Видео, 12, Каширское шоссе, район Нагатино-Садовники, Москва, Центральный федеральный округ, 115230, Россия",
        "lat": 55.6647631,
        "lng": 37.6273,
        "percent": "2.8"
    },
    {
        "name": "М.Видео",
        "address": "М.Видео, улица Зацепский Вал, район Замоскворечье, Москва, Центральный федеральный округ, 115054, Россия",
        "lat": 55.7313059,
        "lng": 37.6396912,
        "percent": "2.8"
    },
    {
        "name": "М.Видео",
        "address": "М.Видео, 26, Каширское шоссе, район Москворечье-Сабурово, Москва, Центральный федеральный округ, 115478, Россия",
        "lat": 55.6531303,
        "lng": 37.6456276,
        "percent": "2.8"
    },
    {
        "name": "М.Видео",
        "address": "М.Видео, 1 к1, Марксистская улица, Таганский район, Москва, Центральный федеральный округ, 109147, Россия",
        "lat": 55.7405639,
        "lng": 37.6587179,
        "percent": "2.8"
    },
    {
        "name": "re:Store",
        "address": "re:Store, 56, Профсоюзная улица, Обручевский район, Москва, Центральный федеральный округ, 117393, Россия",
        "lat": 55.67022,
        "lng": 37.55245,
        "percent": "1.5"
    },
    {
        "name": "re:Store",
        "address": "Re:store, Мичуринский проспект, Олимпийская деревня, Тропарёво-Никулино, Москва, Центральный федеральный округ, 119332, Россия",
        "lat": 55.6779533,
        "lng": 37.4668556,
        "percent": "1.5"
    },
    {
        "name": "re:Store",
        "address": "re:Store, Ленинский проспект, Обручевский район, Москва, Центральный федеральный округ, 119421, Россия",
        "lat": 55.66361,
        "lng": 37.51104,
        "percent": "1.5"
    },
    {
        "name": "re:Store",
        "address": "re:Store, улица Вавилова, Канатчиково, Донской район, Москва, Центральный федеральный округ, 117449, Россия",
        "lat": 55.70766,
        "lng": 37.59056,
        "percent": "1.5"
    },
    {
        "name": "re:Store",
        "address": "re:Store, Мичуринский проспект, район Раменки, Москва, Центральный федеральный округ, 119192, Россия",
        "lat": 55.7037608,
        "lng": 37.5125492,
        "percent": "1.5"
    },
    {
        "name": "re:Store",
        "address": "re:Store, улица Пречистенка, Плющиха, район Хамовники, Москва, Центральный федеральный округ, 119034, Россия",
        "lat": 55.7391562,
        "lng": 37.587186,
        "percent": "1.5"
    },
    {
        "name": "re:Store",
        "address": "re:Store, улица Покрышкина, Тропарёво-Никулино, Москва, Центральный федеральный округ, 119602, Россия",
        "lat": 55.66316,
        "lng": 37.48139,
        "percent": "1.5"
    },
    {
        "name": "re:Store",
        "address": "re:Store, улица Красного Маяка, район Чертаново Центральное, Москва, Центральный федеральный округ, 117519, Россия",
        "lat": 55.6113977,
        "lng": 37.6059896,
        "percent": "1.5"
    },
    {
        "name": "re:Store",
        "address": "re:Store, проспект Багратиона, Поклонная гора, район Фили-Давыдково, Москва, Центральный федеральный округ, 121096, Россия",
        "lat": 55.73183,
        "lng": 37.48786,
        "percent": "1.5"
    },
    {
        "name": "re:Store",
        "address": "re:Store, 2, площадь Киевского Вокзала, район Дорогомилово, Москва, Центральный федеральный округ, 121059, Россия",
        "lat": 55.74448,
        "lng": 37.56621,
        "percent": "1.5"
    },
    {
        "name": "Эльдорадо",
        "address": "Эльдорадо, 1А, Святоозёрская улица, Кожухово, район Косино-Ухтомский, Москва, Центральный федеральный округ, 111625, Россия",
        "lat": 55.714818,
        "lng": 37.8841088,
        "percent": "2"
    },
    {
        "name": "Эльдорадо",
        "address": "Эльдорадо, Лермонтовский проспект (дублёр), район Выхино-Жулебино, Москва, Центральный федеральный округ, 109156, Россия",
        "lat": 55.700199,
        "lng": 37.855514,
        "percent": "2"
    },
    {
        "name": "Эльдорадо",
        "address": "Эльдорадо, 7, улица Побратимов, Красная горка, Люберцы, городской округ Люберцы, Московская область, Центральный федеральный округ, 140015, Россия",
        "lat": 55.6918313,
        "lng": 37.8959791,
        "percent": "2"
    },
    {
        "name": "Эльдорадо",
        "address": "Эльдорадо, Зелёный проспект, район Новогиреево, Москва, Центральный федеральный округ, 111558, Россия",
        "lat": 55.7507628,
        "lng": 37.8202529,
        "percent": "2"
    },
    {
        "name": "Эльдорадо",
        "address": "Эльдорадо, 10, улица Октября, Южный Реутов, Реутов, городской округ Реутов, Московская область, Центральный федеральный округ, 143965, Россия",
        "lat": 55.7520885,
        "lng": 37.8603088,
        "percent": "2"
    },
    {
        "name": "Эльдорадо",
        "address": "Эльдорадо, 16-я Парковая улица, район Северное Измайлово, Москва, Центральный федеральный округ, 105523, Россия",
        "lat": 55.8107264,
        "lng": 37.8310548,
        "percent": "2"
    },
    {
        "name": "Эльдорадо",
        "address": "Эльдорадо, 5, 1-й Покровский проезд, микрорайон Белая Дача, Котельники, городской округ Котельники, Московская область, Центральный федеральный округ, 140055, Россия",
        "lat": 55.6576468,
        "lng": 37.8451256,
        "percent": "2"
    },
    {
        "name": "Эльдорадо",
        "address": "Эльдорадо, 2, МКАД, 2-й километр, район Ивановское, Реутов, Москва, Центральный федеральный округ, 143960, Россия",
        "lat": 55.7641696,
        "lng": 37.8446007,
        "percent": "2"
    },
    {
        "name": "Aliexpress",
        "address": "Aliexpress, 8, 1-я Хуторская улица, Савёловский район, Москва, Центральный федеральный округ, 127287, Россия",
        "lat": 55.8029069,
        "lng": 37.5704081,
        "percent": "2.5"
    },
    {
        "name": "Aliexpress",
        "address": "AliExpress, 14 к1, Туристская улица (дублёр), район Северное Тушино, Москва, Центральный федеральный округ, 125459, Россия",
        "lat": 55.8536244,
        "lng": 37.4229462,
        "percent": "2.5"
    },
    {
        "name": "Aliexpress",
        "address": "Aliexpress, 63, улица Ленина, Изумрудные холмы, Чернево, Красногорск, городской округ Красногорск, Московская область, Центральный федеральный округ, 143408, Россия",
        "lat": 55.8366948,
        "lng": 37.2948316,
        "percent": "2.5"
    },
    {
        "name": "Aliexpress",
        "address": "AliExpress, 5А, улица Октября, 7-й микрорайон, Южный Реутов, Реутов, городской округ Реутов, Московская область, Центральный федеральный округ, 143965, Россия",
        "lat": 55.7500662,
        "lng": 37.8534499,
        "percent": "2.5"
    },
    {
        "name": "Технопарк",
        "address": "Технопарк, улица Мустая Карима, Технопарк Nagatino i-Land, Даниловский район, Москва, Центральный федеральный округ, 115432, Россия",
        "lat": 55.6936232,
        "lng": 37.6644353,
        "percent": "3.4"
    },
    {
        "name": "Технопарк",
        "address": "Технопарк, улица Мустая Карима, Технопарк Nagatino i-Land, Даниловский район, Москва, Центральный федеральный округ, 115432, Россия",
        "lat": 55.6936249,
        "lng": 37.6644724,
        "percent": "3.4"
    },
    {
        "name": "Cstore",
        "address": "Cstore, Тверская улица, 18, 55, Тверской район, Москва, Центральный федеральный округ, 435678, Россия",
        "lat": 55.7611211,
        "lng": 37.6105195,
        "percent": "2"
    },
    {
        "name": "Cstore",
        "address": "Cstore, проектируемый проезд № 4062, Коломенка, район Нагатинский Затон, Москва, Центральный федеральный округ, 115432, Россия",
        "lat": 55.6932463,
        "lng": 37.6729506,
        "percent": "2"
    },
    {
        "name": "Cstore",
        "address": "Cstore, 2, Пресненская набережная, Пресненский район, Москва, Центральный федеральный округ, 123317, Россия",
        "lat": 55.749259,
        "lng": 37.540192,
        "percent": "2"
    },
    {
        "name": "Cstore",
        "address": "Cstore, 7-я Кожуховская улица, Кожухово, Южнопортовый район, Москва, Центральный федеральный округ, 115193, Россия",
        "lat": 55.7106624,
        "lng": 37.6763731,
        "percent": "2"
    },
    {
        "name": "Cstore",
        "address": "Cstore, Химкинский бульвар, район Южное Тушино, Москва, Центральный федеральный округ, 125363, Россия",
        "lat": 55.8505083,
        "lng": 37.4443486,
        "percent": "2"
    },
    {
        "name": "Cstore",
        "address": "Cstore, Шараповский проезд, микрорайон Шараповка, Мытищи, городской округ Мытищи, Московская область, Центральный федеральный округ, 141006, Россия",
        "lat": 55.9166908,
        "lng": 37.758446,
        "percent": "2"
    },
    {
        "name": "Золотое Яблоко",
        "address": "Золотое яблоко, 1, 23-й км Киевского шоссе, поселение Московский, Москва, Центральный федеральный округ, 119629, Россия",
        "lat": 55.6245372,
        "lng": 37.4221641,
        "percent": "5"
    },
    {
        "name": "Золотое Яблоко",
        "address": "Золотое Яблоко, 19 оф160, Ярцевская улица, район Кунцево, Москва, Центральный федеральный округ, 121351, Россия",
        "lat": 55.7379548,
        "lng": 37.4105975,
        "percent": "5"
    },
    {
        "name": "Золотое Яблоко",
        "address": "Золотое яблоко, 19, Ярцевская улица, район Кунцево, Москва, Центральный федеральный округ, 121351, Россия",
        "lat": 55.7387358,
        "lng": 37.4101746,
        "percent": "5"
    },
    {
        "name": "Золотое Яблоко",
        "address": "Золотое яблоко, 2, Пресненская набережная, Пресненский район, Москва, Центральный федеральный округ, 123112, Россия",
        "lat": 55.7484921,
        "lng": 37.5390977,
        "percent": "5"
    },
    {
        "name": "Золотое Яблоко",
        "address": "Золотое яблоко, 16А с4, Ленинградское шоссе, Войковский район, Москва, Центральный федеральный округ, 125171, Россия",
        "lat": 55.8229765,
        "lng": 37.498379,
        "percent": "5"
    },
    {
        "name": "Золотое Яблоко",
        "address": "Золотое яблоко, площадь Академика Вишневского, Нагорный район, Москва, Центральный федеральный округ, 117452, Россия",
        "lat": 55.6511984,
        "lng": 37.6125205,
        "percent": "5"
    },
    {
        "name": "Золотое Яблоко",
        "address": "Золотое яблоко, 2, Трубная площадь, Мещанский район, Москва, Центральный федеральный округ, 127051, Россия",
        "lat": 55.7664985,
        "lng": 37.6218076,
        "percent": "5"
    },
    {
        "name": "Золотое Яблоко",
        "address": "Золотое яблоко, 211 к2, проспект Мира, Свиблово, район Свиблово, Москва, Центральный федеральный округ, 129226, Россия",
        "lat": 55.8449279,
        "lng": 37.6608807,
        "percent": "5"
    },
    {
        "name": "Золотое Яблоко",
        "address": "Золотое яблоко, улица Зацепский Вал, район Замоскворечье, Москва, Центральный федеральный округ, 115054, Россия",
        "lat": 55.73141,
        "lng": 37.639853,
        "percent": "5"
    },
    {
        "name": "Sephora",
        "address": "Sephora, 13 к1, Фестивальная улица, район Левобережный, Москва, Центральный федеральный округ, 125195, Россия",
        "lat": 55.8558031,
        "lng": 37.4761321,
        "percent": "8"
    },
    {
        "name": "Sephora",
        "address": "Sephora, 4, Ходынский бульвар, Ходынское поле, Хорошёвский район, Москва, Центральный федеральный округ, 125252, Россия",
        "lat": 55.7907175,
        "lng": 37.5286692,
        "percent": "8"
    },
    {
        "name": "Sephora",
        "address": "Sephora, 57, Кутузовский проспект, Давыдково, район Фили-Давыдково, Москва, Центральный федеральный округ, 121352, Россия",
        "lat": 55.7277173,
        "lng": 37.4752665,
        "percent": "8"
    },
    {
        "name": "Sephora",
        "address": "Sephora, 34/29, Дубравная улица, район Митино, Москва, Центральный федеральный округ, 123430, Россия",
        "lat": 55.846358,
        "lng": 37.3586666,
        "percent": "8"
    },
    {
        "name": "Sephora",
        "address": "Sephora, 17, Сигнальный проезд, район Отрадное, Москва, Центральный федеральный округ, 127106, Россия",
        "lat": 55.8505816,
        "lng": 37.5973153,
        "percent": "8"
    },
    {
        "name": "Sephora",
        "address": "Sephora, Карманицкий переулок, район Арбат, Москва, Центральный федеральный округ, 121099, Россия",
        "lat": 55.7485284,
        "lng": 37.5831464,
        "percent": "8"
    },
    {
        "name": "Sephora",
        "address": "Sephora, 4/29, улица Пресненский Вал, Пресненский район, Москва, Центральный федеральный округ, 123022, Россия",
        "lat": 55.7635633,
        "lng": 37.5639329,
        "percent": "8"
    },
    {
        "name": "Sephora",
        "address": "Sephora, Комсомольский проспект, Квартал №533, район Хамовники, Москва, Центральный федеральный округ, 115127, Россия",
        "lat": 55.7257214,
        "lng": 37.5810114,
        "percent": "8"
    },
    {
        "name": "Sephora",
        "address": "Sephora, 70/11, Ленинский проспект (дублёр), Гагаринский район, Москва, Центральный федеральный округ, 119261, Россия",
        "lat": 55.6879826,
        "lng": 37.5441434,
        "percent": "8"
    },
    {
        "name": "Sephora",
        "address": "Sephora, 1, Ленинградское шоссе, Родионово, микрорайон ИКЕА, Химки, городской округ Химки, Московская область, Центральный федеральный округ, 141410, Россия",
        "lat": 55.9107498,
        "lng": 37.3953435,
        "percent": "8"
    },
    {
        "name": "Иль Де Ботэ",
        "address": "Иль де ботэ, с1, 21-й км Калужского шоссе, поселение Сосенское, Москва, Центральный федеральный округ, 142704, Россия",
        "lat": 55.6037993,
        "lng": 37.4927288,
        "percent": "6"
    },
    {
        "name": "Будь Здоров!",
        "address": "Будь здоров!, улица Академика Арцимовича, район Коньково, Москва, Центральный федеральный округ, 117437, Россия",
        "lat": 55.6436735,
        "lng": 37.5109858,
        "percent": "3"
    },
    {
        "name": "Будь Здоров!",
        "address": "Будь здоров!, 24Б, улица Введенского, район Коньково, Москва, Центральный федеральный округ, 117279, Россия",
        "lat": 55.6380857,
        "lng": 37.5338192,
        "percent": "3"
    },
    {
        "name": "Будь Здоров!",
        "address": "Будь здоров, 5, Ломоносовский проспект (дублёр), Гагаринский район, Москва, Центральный федеральный округ, 117335, Россия",
        "lat": 55.6858661,
        "lng": 37.5480492,
        "percent": "3"
    },
    {
        "name": "Будь Здоров!",
        "address": "Будь здоров, 13, Большая Черёмушкинская улица, район Котловка, Москва, Центральный федеральный округ, 117447, Россия",
        "lat": 55.6861446,
        "lng": 37.5940356,
        "percent": "3"
    },
    {
        "name": "Будь Здоров!",
        "address": "Будь здоров!, 21 к2, проспект Вернадского (дублёр), Ломоносовский район, Москва, Центральный федеральный округ, 119331, Россия",
        "lat": 55.6845107,
        "lng": 37.5212212,
        "percent": "3"
    },
    {
        "name": "Будь Здоров!",
        "address": "Будь здоров, Мосфильмовская улица, Потылиха, район Раменки, Москва, Центральный федеральный округ, 121357, Россия",
        "lat": 55.7259755,
        "lng": 37.532871,
        "percent": "3"
    },
    {
        "name": "Будь Здоров!",
        "address": "Будь здоров!, улица Мичуринский Проспект, Олимпийская Деревня, Олимпийская деревня, Тропарёво-Никулино, Москва, Центральный федеральный округ, 119332, Россия",
        "lat": 55.6728869,
        "lng": 37.4584389,
        "percent": "3"
    },
    {
        "name": "Будь Здоров!",
        "address": "Будь здоров, Кавказский бульвар, Котляково, район Царицыно, Москва, Центральный федеральный округ, 115477, Россия",
        "lat": 55.627665,
        "lng": 37.6511577,
        "percent": "3"
    },
    {
        "name": "Будь Здоров!",
        "address": "Будь здоров!, 12, улица Доватора, Квартал №533, район Хамовники, Москва, Центральный федеральный округ, 119048, Россия",
        "lat": 55.7230237,
        "lng": 37.5659372,
        "percent": "3"
    },
    {
        "name": "Будь Здоров!",
        "address": "Будь здоров!, 9 к1, Славянский бульвар, Давыдково, район Фили-Давыдково, Москва, Центральный федеральный округ, 121352, Россия",
        "lat": 55.7264612,
        "lng": 37.4689271,
        "percent": "3"
    },
    {
        "name": "Л’этуаль",
        "address": "Л'Этуаль, 39 с1, Можайское шоссе (дублёр), Можайский, Можайский район, Москва, Центральный федеральный округ, 121451, Россия",
        "lat": 55.7173172,
        "lng": 37.4132151,
        "percent": "10"
    },
    {
        "name": "Л’этуаль",
        "address": "Л'Этуаль, Можайское шоссе (дублёр), Можайский, Можайский район, Москва, Центральный федеральный округ, 121451, Россия",
        "lat": 55.7188487,
        "lng": 37.4212581,
        "percent": "10"
    },
    {
        "name": "Л’этуаль",
        "address": "Л'Этуаль, 19, Ярцевская улица, район Кунцево, Москва, Центральный федеральный округ, 121552, Россия",
        "lat": 55.7389733,
        "lng": 37.410643,
        "percent": "10"
    },
    {
        "name": "Л’этуаль",
        "address": "Л’Этуаль, 14, Хорошёвский проезд, Немчиновка, Одинцовский городской округ, Московская область, Центральный федеральный округ, 143025, Россия",
        "lat": 55.7200917,
        "lng": 37.3792706,
        "percent": "10"
    },
    {
        "name": "Л’этуаль",
        "address": "Л'Этуаль, 110, МКАД, 54-й километр, Можайский район, Москва, Центральный федеральный округ, 121025, Россия",
        "lat": 55.7070864,
        "lng": 37.3853248,
        "percent": "10"
    },
    {
        "name": "Л’этуаль",
        "address": "Л'Этуаль, 12, Осенний бульвар, Крылатское, район Крылатское, Москва, Центральный федеральный округ, 121609, Россия",
        "lat": 55.7591627,
        "lng": 37.4090541,
        "percent": "10"
    },
    {
        "name": "Л’этуаль",
        "address": "Л'Этуаль, 62, Рублёвское шоссе, район Крылатское, Москва, Центральный федеральный округ, 121609, Россия",
        "lat": 55.7664902,
        "lng": 37.3821651,
        "percent": "10"
    },
    {
        "name": "Л’этуаль",
        "address": "Л'Этуаль, 13, МКАД, 67-й километр, район Строгино, Красногорск, Москва, Центральный федеральный округ, 125464, Россия",
        "lat": 55.8208635,
        "lng": 37.3891834,
        "percent": "10"
    },
    {
        "name": "Л’этуаль",
        "address": "Л'Этуаль, 27, Мичуринский проспект, район Раменки, Москва, Центральный федеральный округ, 119192, Россия",
        "lat": 55.6973467,
        "lng": 37.5002235,
        "percent": "10"
    },
    {
        "name": "Л’этуаль",
        "address": "Л'Этуаль, 86А, проспект Вернадского, Тропарёво-Никулино, Москва, Центральный федеральный округ, 117571, Россия",
        "lat": 55.6625505,
        "lng": 37.480948,
        "percent": "10"
    },
    {
        "name": "Аптека Ригла",
        "address": "Ригла, 24 к1, Большая Академическая улица, Коптево, район Коптево, Москва, Центральный федеральный округ, 125239, Россия",
        "lat": 55.8239565,
        "lng": 37.5290094,
        "percent": "3"
    },
    {
        "name": "Аптека Ригла",
        "address": "Ригла, Ленинградский проспект, район Аэропорт, Москва, Центральный федеральный округ, 125993, Россия",
        "lat": 55.7978468,
        "lng": 37.5395048,
        "percent": "3"
    },
    {
        "name": "Аптека Ригла",
        "address": "Ригла, 1-я Аэропортовская улица, район Аэропорт, Москва, Центральный федеральный округ, 125319, Россия",
        "lat": 55.8002847,
        "lng": 37.5358673,
        "percent": "3"
    },
    {
        "name": "Аптека Ригла",
        "address": "Ригла, 4 к1, улица Зои и Александра Космодемьянских, Войковский район, Москва, Центральный федеральный округ, 125493, Россия",
        "lat": 55.8176833,
        "lng": 37.5023691,
        "percent": "3"
    },
    {
        "name": "Аптека Ригла",
        "address": "Ригла, 2-я Песчаная улица, посёлок Сокол, район Сокол, Москва, Центральный федеральный округ, 125252, Россия",
        "lat": 55.7965132,
        "lng": 37.5157999,
        "percent": "3"
    },
    {
        "name": "Аптека Ригла",
        "address": "Ригла, 74 к1, Ленинградский проспект (дублёр), район Аэропорт, Москва, Центральный федеральный округ, 125057, Россия",
        "lat": 55.8051245,
        "lng": 37.5167851,
        "percent": "3"
    },
    {
        "name": "Аптека Ригла",
        "address": "Ригла, 75, Ленинградский проспект, посёлок Сокол, район Сокол, Москва, Центральный федеральный округ, 125057, Россия",
        "lat": 55.8042504,
        "lng": 37.5135604,
        "percent": "3"
    },
    {
        "name": "Аптека Ригла",
        "address": "Ригла, 9 к1, Петрозаводская улица, район Ховрино, Москва, Центральный федеральный округ, 125502, Россия",
        "lat": 55.8653451,
        "lng": 37.4960431,
        "percent": "3"
    },
    {
        "name": "Аптека Ригла",
        "address": "Ригла, 12 к1, улица Расплетина, Октябрьское Поле, район Щукино, Москва, Центральный федеральный округ, 123060, Россия",
        "lat": 55.7915304,
        "lng": 37.4833148,
        "percent": "3"
    },
    {
        "name": "Аптека Ригла",
        "address": "Ригла, 13 с1А, Ленинградский проспект, район Беговой, Москва, Центральный федеральный округ, 125040, Россия",
        "lat": 55.7813146,
        "lng": 37.5731056,
        "percent": "3"
    },
    {
        "name": "Гемотест",
        "address": "Гемотест, 13 к.1, Лобненская улица, Дмитровский, Дмитровский район, Москва, Центральный федеральный округ, 127411, Россия",
        "lat": 55.8896598,
        "lng": 37.5291,
        "percent": "4"
    },
    {
        "name": "Гемотест",
        "address": "Гемотест, 165Е к6, Дмитровское шоссе (дублёр), Северный, район Северный, Москва, Центральный федеральный округ, 127495, Россия",
        "lat": 55.9258339,
        "lng": 37.5445004,
        "percent": "4"
    },
    {
        "name": "Гемотест",
        "address": "Гемотест, 32 к1, улица Дыбенко, район Ховрино, Москва, Центральный федеральный округ, 125475, Россия",
        "lat": 55.8752363,
        "lng": 37.4857733,
        "percent": "4"
    },
    {
        "name": "Гемотест",
        "address": "Гемотест, 17, улица Пришвина, Бибирево, район Бибирево, Москва, Центральный федеральный округ, 127549, Россия",
        "lat": 55.8866772,
        "lng": 37.6032266,
        "percent": "4"
    },
    {
        "name": "Гемотест",
        "address": "Гемотест, 21, Набережная улица, Хлебниково, Долгопрудный, городской округ Долгопрудный, Московская область, Центральный федеральный округ, 141704, Россия",
        "lat": 55.9618193,
        "lng": 37.5200068,
        "percent": "4"
    },
    {
        "name": "Гемотест",
        "address": "Гемотест, 2 к6, Дубнинская улица, Верхние Лихоборы, район Восточное Дегунино, Москва, Центральный федеральный округ, 127282, Россия",
        "lat": 55.857762,
        "lng": 37.5677933,
        "percent": "4"
    },
    {
        "name": "Гемотест",
        "address": "Гемотест, 1 к3, Ленинский проспект, Жилой комплекс «Парк Толстого», Старые Химки, Химки, городской округ Химки, Московская область, Центральный федеральный округ, 141401, Россия",
        "lat": 55.8961803,
        "lng": 37.4532819,
        "percent": "4"
    },
    {
        "name": "Гемотест",
        "address": "Гемотест, 1, Пролетарская улица, Бутаково, Старые Химки, Химки, городской округ Химки, Московская область, Центральный федеральный округ, 141402, Россия",
        "lat": 55.8902902,
        "lng": 37.4436408,
        "percent": "4"
    },
    {
        "name": "Гемотест",
        "address": "Гемотест, 17 к1, Фестивальная улица, район Левобережный, Москва, Центральный федеральный округ, 125195, Россия",
        "lat": 55.8562865,
        "lng": 37.4779311,
        "percent": "4"
    },
    {
        "name": "Гемотест",
        "address": "Гемотест, 29 к1, улица Клары Цеткин, Войковский район, район Коптево, Москва, Центральный федеральный округ, 127299, Россия",
        "lat": 55.8255981,
        "lng": 37.5153024,
        "percent": "4"
    },
    {
        "name": "The Body Shop",
        "address": "The Body Shop, 16А с4, Ленинградское шоссе, Войковский район, Москва, Центральный федеральный округ, 125171, Россия",
        "lat": 55.8231638,
        "lng": 37.4980354,
        "percent": "10"
    },
    {
        "name": "The Body Shop",
        "address": "The Body Shop, 42, Щукинская улица, район Щукино, Москва, Центральный федеральный округ, 123182, Россия",
        "lat": 55.8093443,
        "lng": 37.4649283,
        "percent": "10"
    },
    {
        "name": "The Body Shop",
        "address": "The Body Shop, 4, Ходынский бульвар, Ходынское поле, Хорошёвский район, Москва, Центральный федеральный округ, 125252, Россия",
        "lat": 55.7900153,
        "lng": 37.5323622,
        "percent": "10"
    },
    {
        "name": "The Body Shop",
        "address": "The Body Shop, 2, Пресненская набережная, Пресненский район, Москва, Центральный федеральный округ, 123317, Россия",
        "lat": 55.7492493,
        "lng": 37.54141,
        "percent": "10"
    },
    {
        "name": "The Body Shop",
        "address": "The Body Shop, Большая Дорогомиловская улица, район Дорогомилово, Москва, Центральный федеральный округ, 121248, Россия",
        "lat": 55.7450099,
        "lng": 37.5667444,
        "percent": "10"
    },
    {
        "name": "Здравсити",
        "address": "ЗдравСити, 9 с2, Окружной проезд, район Соколиная Гора, Москва, Центральный федеральный округ, 105187, Россия",
        "lat": 55.7883855,
        "lng": 37.7440152,
        "percent": "3"
    },
    {
        "name": "Здравсити",
        "address": "Здравсити, 27, Краснобогатырская улица, Богородское, район Богородское, Москва, Центральный федеральный округ, 107258, Россия",
        "lat": 55.8104917,
        "lng": 37.7036851,
        "percent": "3"
    },
    {
        "name": "Здравсити",
        "address": "Здравсити, 5 к1, Большая Черкизовская улица, Черкизово, район Преображенское, Москва, Центральный федеральный округ, 107061, Россия",
        "lat": 55.7974308,
        "lng": 37.7208037,
        "percent": "3"
    },
    {
        "name": "Здравсити",
        "address": "Здравсити, 21 к4, Открытое шоссе, район Метрогородок, Москва, Центральный федеральный округ, 107143, Россия",
        "lat": 55.8238559,
        "lng": 37.7558985,
        "percent": "3"
    },
    {
        "name": "Здравсити",
        "address": "Здравсити, 4А, Саянская улица, район Ивановское, Москва, Центральный федеральный округ, 111578, Россия",
        "lat": 55.7671114,
        "lng": 37.825444,
        "percent": "3"
    },
    {
        "name": "Здравсити",
        "address": "ЗдравСити, Уссурийская улица, район Гольяново, Москва, Центральный федеральный округ, 107065, Россия",
        "lat": 55.8234718,
        "lng": 37.8110645,
        "percent": "3"
    },
    {
        "name": "Здравсити",
        "address": "ЗдравСити, 49, Новохохловская улица, Нижегородский район, Москва, Центральный федеральный округ, 109052, Россия",
        "lat": 55.7243018,
        "lng": 37.716331,
        "percent": "3"
    },
    {
        "name": "Здравсити",
        "address": "ЗдравСити, 4 к1-2, Сокольническая площадь, Сокольники, район Сокольники, Москва, Центральный федеральный округ, 101113, Россия",
        "lat": 55.789112,
        "lng": 37.6777192,
        "percent": "3"
    },
    {
        "name": "Здравсити",
        "address": "Здравсити, Чусовская улица, район Гольяново, Москва, Центральный федеральный округ, 107207, Россия",
        "lat": 55.8164355,
        "lng": 37.8114187,
        "percent": "3"
    },
    {
        "name": "Здравсити",
        "address": "здравсити, Вешняковская улица, район Вешняки, Москва, Центральный федеральный округ, 111538, Россия",
        "lat": 55.7187363,
        "lng": 37.824478,
        "percent": "3"
    },
    {
        "name": "Аптека «Диалог»",
        "address": "Диалог, 78 к1, Ленинградский проспект (дублёр), район Аэропорт, Москва, Центральный федеральный округ, 119049, Россия",
        "lat": 55.8061562,
        "lng": 37.5126605,
        "percent": "3"
    },
    {
        "name": "Аптека «Диалог»",
        "address": "Диалог, 36 с1А, улица Гиляровского, Мещанский район, Москва, Центральный федеральный округ, 129110, Россия",
        "lat": 55.7826863,
        "lng": 37.6325655,
        "percent": "3"
    },
    {
        "name": "Аптека «Диалог»",
        "address": "Диалог, 15, улица Коштоянца, Проспект Вернадского, район Проспект Вернадского, Москва, Центральный федеральный округ, 119454, Россия",
        "lat": 55.6784404,
        "lng": 37.4914455,
        "percent": "3"
    },
    {
        "name": "Аптека «Диалог»",
        "address": "Диалог, 1/1, проспект Будённого, район Соколиная Гора, Москва, Центральный федеральный округ, 105318, Россия",
        "lat": 55.7784118,
        "lng": 37.7215414,
        "percent": "3"
    },
    {
        "name": "Аптека «Диалог»",
        "address": "Диалог, 3-й Автозаводский проезд, Даниловский район, Москва, Центральный федеральный округ, 115280, Россия",
        "lat": 55.7085423,
        "lng": 37.6565355,
        "percent": "3"
    },
    {
        "name": "Аптека «Диалог»",
        "address": "Диалог, Маленковская улица, Сокольники, район Сокольники, Москва, Центральный федеральный округ, 107113, Россия",
        "lat": 55.7863637,
        "lng": 37.6762819,
        "percent": "3"
    },
    {
        "name": "Аптека «Диалог»",
        "address": "Диалог, 6-я Кожуховская улица, Кожухово, Южнопортовый район, Москва, Центральный федеральный округ, 115193, Россия",
        "lat": 55.707151,
        "lng": 37.672897,
        "percent": "3"
    },
    {
        "name": "Аптека «Диалог»",
        "address": "Диалог, 56/55, Перовская улица, район Новогиреево, Москва, Центральный федеральный округ, 111394, Россия",
        "lat": 55.7449155,
        "lng": 37.7887194,
        "percent": "3"
    },
    {
        "name": "Аптека «Диалог»",
        "address": "Диалог, 6 с1, Авиамоторная улица, район Лефортово, Москва, Центральный федеральный округ, 111020, Россия",
        "lat": 55.7586061,
        "lng": 37.7157915,
        "percent": "3"
    },
    {
        "name": "Аптека «Диалог»",
        "address": "Здоров.ру, 76А, Ленинградский проспект (дублёр), район Аэропорт, Москва, Центральный федеральный округ, 119049, Россия",
        "lat": 55.8056728,
        "lng": 37.515606,
        "percent": "3"
    },
    {
        "name": "Foam",
        "address": "Пена и Пар, 22, Высоковольтная улица, Красный Октябрь, Раменское, Раменский городской округ, Московская область, Центральный федеральный округ, 140104, Россия",
        "lat": 55.5736326,
        "lng": 38.202923,
        "percent": "9"
    },
    {
        "name": "Giorgio Armani",
        "address": "Giorgio Armani, Композиторская улица, район Арбат, Москва, Центральный федеральный округ, 121099, Россия",
        "lat": 55.7514746,
        "lng": 37.5840374,
        "percent": "15"
    },
    {
        "name": "L’Occitane",
        "address": "L'Occitane, с1, 21-й км Калужского шоссе, поселение Сосенское, Москва, Центральный федеральный округ, 142704, Россия",
        "lat": 55.6037999,
        "lng": 37.4922293,
        "percent": "6"
    },
    {
        "name": "L’Occitane",
        "address": "L'Occitane, улица Маршала Шестопалова, район Москворечье-Сабурово, Москва, Центральный федеральный округ, 115478, Россия",
        "lat": 55.6532903,
        "lng": 37.6461342,
        "percent": "6"
    },
    {
        "name": "L’Occitane",
        "address": "L'Occitane, 36 с1, улица Красная Пресня, Пресненский район, Москва, Центральный федеральный округ, 123022, Россия",
        "lat": 55.7624876,
        "lng": 37.5668307,
        "percent": "6"
    },
    {
        "name": "L’Occitane",
        "address": "l'occitane, 2 с1, Павелецкая площадь, район Замоскворечье, Москва, Центральный федеральный округ, 115054, Россия",
        "lat": 55.7304583,
        "lng": 37.6343585,
        "percent": "6"
    },
    {
        "name": "L’Occitane",
        "address": "L'Occitane, Моховая улица, 18, 40, Тверской район, Москва, Центральный федеральный округ, 103265, Россия",
        "lat": 55.75572645,
        "lng": 37.61485120243805,
        "percent": "6"
    },
    {
        "name": "L’Occitane",
        "address": "L'Occitane, улица Зацепский Вал, район Замоскворечье, Москва, Центральный федеральный округ, 115054, Россия",
        "lat": 55.731053,
        "lng": 37.6394618,
        "percent": "6"
    },
    {
        "name": "L’Occitane",
        "address": "L'Occitane, 10, Никольская улица, 10, Китай-город, Тверской район, Москва, Центральный федеральный округ, 109012, Россия",
        "lat": 55.7582081,
        "lng": 37.6241926,
        "percent": "6"
    },
    {
        "name": "L’Occitane",
        "address": "L'Occitane, 3А, Верхняя Красносельская улица, Красносельский район, Москва, Центральный федеральный округ, 107140, Россия",
        "lat": 55.7860058,
        "lng": 37.6645512,
        "percent": "6"
    },
    {
        "name": "L’Occitane",
        "address": "L'Occitane, Новорижское шоссе, городской округ Красногорск, Московская область, Центральный федеральный округ, 143420, Россия",
        "lat": 55.8000312,
        "lng": 37.2743291,
        "percent": "6"
    },
    {
        "name": "L’Occitane",
        "address": "L'Occitane, 20, Шереметьевская улица, район Марьина Роща, Москва, Центральный федеральный округ, 127521, Россия",
        "lat": 55.8035537,
        "lng": 37.618121,
        "percent": "6"
    },
    {
        "name": "Start",
        "address": "Старт, 19А, улица Дзержинского, Семилуки, городское поселение Семилуки, Семилукский район, Воронежская область, Центральный федеральный округ, 396000, Россия",
        "lat": 51.6971993,
        "lng": 39.016142,
        "percent": "20"
    },
    {
        "name": "Читай Город",
        "address": "Читай-город, улица Черняховского, район Аэропорт, Москва, Центральный федеральный округ, 125167, Россия",
        "lat": 55.8014272,
        "lng": 37.5320145,
        "percent": "6"
    },
    {
        "name": "Читай Город",
        "address": "Читай-город, 15 к1, Дмитровское шоссе, Тимирязевский район, Москва, Центральный федеральный округ, 127343, Россия",
        "lat": 55.819529,
        "lng": 37.5735092,
        "percent": "6"
    },
    {
        "name": "Читай Город",
        "address": "Читай-город, 12, улица Декабристов, район Отрадное, Москва, Центральный федеральный округ, 127560, Россия",
        "lat": 55.8639218,
        "lng": 37.6013472,
        "percent": "6"
    },
    {
        "name": "Читай Город",
        "address": "Читай-город, 30/12, улица Шаболовка, Донской район, Москва, Центральный федеральный округ, 115162, Россия",
        "lat": 55.7195352,
        "lng": 37.6081796,
        "percent": "6"
    },
    {
        "name": "Читай Город",
        "address": "Читай-город, 7, Кронштадтский бульвар, Головинский район, Москва, Центральный федеральный округ, 125212, Россия",
        "lat": 55.8407602,
        "lng": 37.4871768,
        "percent": "6"
    },
    {
        "name": "Читай Город",
        "address": "Читай-город, 17, улица Маршала Бирюзова, район Щукино, Москва, Центральный федеральный округ, 123060, Россия",
        "lat": 55.7937087,
        "lng": 37.4926078,
        "percent": "6"
    },
    {
        "name": "Читай Город",
        "address": "Читай город, 3-й проезд Марьиной Рощи, район Марьина Роща, Москва, Центральный федеральный округ, 129594, Россия",
        "lat": 55.7959886,
        "lng": 37.6172441,
        "percent": "6"
    },
    {
        "name": "Читай Город",
        "address": "Читай-город, 12, Малая Сухаревская площадь, Мещанский район, Москва, Центральный федеральный округ, 129010, Россия",
        "lat": 55.7724804,
        "lng": 37.6316345,
        "percent": "6"
    },
    {
        "name": "Читай Город",
        "address": "Читай-город, 24, улица Дмитрия Ульянова, Академический район, Москва, Центральный федеральный округ, 117036, Россия",
        "lat": 55.68654,
        "lng": 37.5757263,
        "percent": "6"
    },
    {
        "name": "Читай Город",
        "address": "Читай-город, проспект Мира, Алексеевский район, Москва, Центральный федеральный округ, 129085, Россия",
        "lat": 55.8081556,
        "lng": 37.63796,
        "percent": "6"
    },
    {
        "name": "Красный Карандаш",
        "address": "Красный карандаш, 13/3, Гусятников переулок, Басманный район, Москва, Центральный федеральный округ, 101000, Россия",
        "lat": 55.763956,
        "lng": 37.6425667,
        "percent": "2.5"
    },
    {
        "name": "Красный Карандаш",
        "address": "Красный карандаш, 52, улица Большая Якиманка, район Якиманка, Москва, Центральный федеральный округ, 119049, Россия",
        "lat": 55.7316383,
        "lng": 37.6116831,
        "percent": "2.5"
    },
    {
        "name": "Красный Карандаш",
        "address": "Красный карандаш, 9, Сокольническая площадь, Сокольники, район Сокольники, Москва, Центральный федеральный округ, 107113, Россия",
        "lat": 55.7906858,
        "lng": 37.6801624,
        "percent": "2.5"
    },
    {
        "name": "Красный Карандаш",
        "address": "Красный карандаш, 4, улица Большие Каменщики, Таганский район, Москва, Центральный федеральный округ, 115172, Россия",
        "lat": 55.7381903,
        "lng": 37.6533908,
        "percent": "2.5"
    },
    {
        "name": "Красный Карандаш",
        "address": "Красный карандаш, Новослободская улица, Тверской район, Москва, Центральный федеральный округ, 127055, Россия",
        "lat": 55.782078,
        "lng": 37.5997102,
        "percent": "2.5"
    },
    {
        "name": "Красный Карандаш",
        "address": "Красный карандаш, Волоколамское шоссе (дублёр), посёлок Сокол, район Сокол, Москва, Центральный федеральный округ, 125080, Россия",
        "lat": 55.8071626,
        "lng": 37.5018803,
        "percent": "2.5"
    },
    {
        "name": "Radisson Hotel",
        "address": "Рэдиссон Ройал, Москва, 2/1, Кутузовский проспект, район Дорогомилово, Москва, Центральный федеральный округ, 121248, Россия",
        "lat": 55.7514562,
        "lng": 37.5654893577766,
        "percent": "6"
    },
    {
        "name": "Radisson Hotel",
        "address": "Radisson SAS Славянская, Бережковская набережная, район Дорогомилово, Москва, Центральный федеральный округ, 121059, Россия",
        "lat": 55.7418773,
        "lng": 37.5681505,
        "percent": "6"
    },
    {
        "name": "Radisson Hotel",
        "address": "Radisson Blu Олимпийский, 1, Самарская улица, Мещанский район, Москва, Центральный федеральный округ, 129110, Россия",
        "lat": 55.784732399999996,
        "lng": 37.626443632506316,
        "percent": "6"
    },
    {
        "name": "Radisson Hotel",
        "address": "Рэдиссон Белорусская, 26А, 3-я улица Ямского Поля, район Беговой, Москва, Центральный федеральный округ, 125040, Россия",
        "lat": 55.78310355,
        "lng": 37.57926474077251,
        "percent": "6"
    },
    {
        "name": "Radisson Hotel",
        "address": "Leninsky Prospect Hotel, улица Кравченко, Проспект Вернадского, район Проспект Вернадского, Москва, Центральный федеральный округ, 119331, Россия",
        "lat": 55.67366125,
        "lng": 37.51981715,
        "percent": "6"
    },
    {
        "name": "ivi.ru",
        "address": "Иви, 23 с5, Большая Новодмитровская улица, Бутырский район, Москва, Центральный федеральный округ, 127015, Россия",
        "lat": 55.8034669,
        "lng": 37.5843063,
        "percent": "15"
    },
    {
        "name": "Спортмастер",
        "address": "Спортмастер, 118, Профсоюзная улица, район Коньково, Москва, Центральный федеральный округ, 117647, Россия",
        "lat": 55.6365118,
        "lng": 37.521161,
        "percent": "5"
    },
    {
        "name": "Спортмастер",
        "address": "Спортмастер, 37, улица Миклухо-Маклая, район Коньково, Москва, Центральный федеральный округ, 117437, Россия",
        "lat": 55.6453764,
        "lng": 37.5214353,
        "percent": "5"
    },
    {
        "name": "Спортмастер",
        "address": "Спортмастер, 22, Литовский бульвар, район Ясенево, Москва, Центральный федеральный округ, 117593, Россия",
        "lat": 55.6117779,
        "lng": 37.5377708,
        "percent": "5"
    },
    {
        "name": "Спортмастер",
        "address": "Спортмастер, Коммунарское шоссе, поселение Сосенское, Москва, Центральный федеральный округ, 142704, Россия",
        "lat": 55.60264,
        "lng": 37.491563710175996,
        "percent": "5"
    },
    {
        "name": "Спортмастер",
        "address": "Спортмастер, Рузская улица, Тропарёво-Никулино, Москва, Центральный федеральный округ, 119602, Россия",
        "lat": 55.6649869,
        "lng": 37.4817727,
        "percent": "5"
    },
    {
        "name": "Спортмастер",
        "address": "Спортмастер, 1, Большая Черёмушкинская улица, район Котловка, Москва, Центральный федеральный округ, 117447, Россия",
        "lat": 55.6894641,
        "lng": 37.6024101,
        "percent": "5"
    },
    {
        "name": "Спортмастер",
        "address": "Спортмастер Гипер, 129А, Варшавское шоссе (дублёр), район Чертаново Центральное, Москва, Центральный федеральный округ, 117545, Россия",
        "lat": 55.6146854,
        "lng": 37.6126771,
        "percent": "5"
    },
    {
        "name": "Спортмастер",
        "address": "Спортмастер, 87Б, Варшавское шоссе (дублёр), Нагорный район, Москва, Центральный федеральный округ, 117556, Россия",
        "lat": 55.6537688,
        "lng": 37.6209738,
        "percent": "5"
    },
    {
        "name": "Спортмастер",
        "address": "Спортмастер, 51, Чечёрский проезд, район Южное Бутово, Москва, поселение Воскресенское, Москва, Центральный федеральный округ, 117041, Россия",
        "lat": 55.5243229,
        "lng": 37.5177536,
        "percent": "5"
    },
    {
        "name": "Спортмастер",
        "address": "Спортмастер, Кировоградская улица, район Чертаново Центральное, Москва, Центральный федеральный округ, 117519, Россия",
        "lat": 55.6127745,
        "lng": 37.6057774,
        "percent": "5"
    },
    {
        "name": "Skillbox",
        "address": "Skillbox Offline, улица Тимура Фрунзе, Плющиха, район Хамовники, Москва, Центральный федеральный округ, 119034, Россия",
        "lat": 55.7337465,
        "lng": 37.5900203,
        "percent": "20"
    },
    {
        "name": "Hotels.com",
        "address": "Aleon inn, Валовая улица, район Замоскворечье, Москва, Центральный федеральный округ, 115054, Россия",
        "lat": 55.730226,
        "lng": 37.6260535,
        "percent": "3"
    },
    {
        "name": "Hotels.com",
        "address": "Forton, Житная улица, район Якиманка, Москва, Центральный федеральный округ, 119049, Россия",
        "lat": 55.7305879,
        "lng": 37.6193115,
        "percent": "3"
    },
    {
        "name": "Hotels.com",
        "address": "Гуэнос Плаза, 1А с3, улица Коровий Вал, район Замоскворечье, Москва, Центральный федеральный округ, 119049, Россия",
        "lat": 55.72885145,
        "lng": 37.62174030119087,
        "percent": "3"
    },
    {
        "name": "Hotels.com",
        "address": "InterQube, улица Большая Полянка, район Якиманка, Москва, Центральный федеральный округ, 115054, Россия",
        "lat": 55.731102,
        "lng": 37.6231018,
        "percent": "3"
    },
    {
        "name": "Hotels.com",
        "address": "Академическая, 1, Донская улица, район Якиманка, Москва, Центральный федеральный округ, 111991, Россия",
        "lat": 55.72717675,
        "lng": 37.610994351349945,
        "percent": "3"
    },
    {
        "name": "Hotels.com",
        "address": "улица Малая Ордынка, район Замоскворечье, Москва, Центральный федеральный округ, 119017, Россия",
        "lat": 55.7324803,
        "lng": 37.6248738,
        "percent": "3"
    },
    {
        "name": "Hotels.com",
        "address": "Apple Dream, Пятницкая улица, район Замоскворечье, Москва, Центральный федеральный округ, 115054, Россия",
        "lat": 55.7303672,
        "lng": 37.6260422,
        "percent": "3"
    },
    {
        "name": "Hotels.com",
        "address": "Винтерфелл, улица Большая Ордынка, район Замоскворечье, Москва, Центральный федеральный округ, 119017, Россия",
        "lat": 55.735388,
        "lng": 37.6248506,
        "percent": "3"
    },
    {
        "name": "Hotels.com",
        "address": "Президент-Отель, 24, улица Большая Якиманка, район Якиманка, Москва, Центральный федеральный округ, 119180, Россия",
        "lat": 55.7375098,
        "lng": 37.61278247437214,
        "percent": "3"
    },
    {
        "name": "Hotels.com",
        "address": "Парк Инн Саду, 17 с1, улица Большая Полянка, район Якиманка, Москва, Центральный федеральный округ, 119180, Россия",
        "lat": 55.739149850000004,
        "lng": 37.618010774557064,
        "percent": "3"
    },
    {
        "name": "Tom Tailor",
        "address": "Tom Tailor, 15, Лапшинка, ДНТ «Полянка-Лапшинка», поселение Московский, Москва, Центральный федеральный округ, 142782, Россия",
        "lat": 55.6083986,
        "lng": 37.3325467,
        "percent": "6"
    },
    {
        "name": "Lamoda",
        "address": "Lamoda, 11/13, Новокузнецкая улица, район Замоскворечье, Москва, Центральный федеральный округ, 115035, Россия",
        "lat": 55.7381899,
        "lng": 37.6314689,
        "percent": "5"
    },
    {
        "name": "Lamoda",
        "address": "Lamoda, Цветной бульвар, Мещанский район, Москва, Центральный федеральный округ, 127051, Россия",
        "lat": 55.7697804,
        "lng": 37.6228163,
        "percent": "5"
    },
    {
        "name": "Lamoda",
        "address": "Lamoda, Новослободская улица, Тверской район, Москва, Центральный федеральный округ, 127055, Россия",
        "lat": 55.7843894,
        "lng": 37.595939,
        "percent": "5"
    },
    {
        "name": "Lamoda",
        "address": "Lamoda, Николоямская улица, Таганский район, Москва, Центральный федеральный округ, 109189, Россия",
        "lat": 55.7472437,
        "lng": 37.6544769,
        "percent": "5"
    },
    {
        "name": "Lamoda",
        "address": "Lamoda, улица Трофимова, Кожухово, Южнопортовый район, Москва, Центральный федеральный округ, 115432, Россия",
        "lat": 55.7029713,
        "lng": 37.6846881,
        "percent": "5"
    },
    {
        "name": "Lamoda",
        "address": "Lamoda, 21/2 с1, улица Земляной Вал, Бауманка, Басманный район, Москва, Центральный федеральный округ, 105064, Россия",
        "lat": 55.7608436,
        "lng": 37.6581044,
        "percent": "5"
    },
    {
        "name": "Lamoda",
        "address": "Lamoda, Большая Грузинская улица, Пресненский район, Москва, Центральный федеральный округ, 125196, Россия",
        "lat": 55.7732217,
        "lng": 37.5854717,
        "percent": "5"
    },
    {
        "name": "Lamoda",
        "address": "Lamoda, 10, Луганская улица, район Царицыно, Москва, Центральный федеральный округ, 115541, Россия",
        "lat": 55.6223909,
        "lng": 37.6676293,
        "percent": "5"
    },
    {
        "name": "Lamoda",
        "address": "Lamoda, 3-я Черкизовская улица, Черкизово, район Преображенское, Москва, Центральный федеральный округ, 107061, Россия",
        "lat": 55.7943295,
        "lng": 37.7165366,
        "percent": "5"
    },
    {
        "name": "Lamoda",
        "address": "Lamoda, Балтийская улица, район Аэропорт, Москва, Центральный федеральный округ, 125057, Россия",
        "lat": 55.8073741,
        "lng": 37.5126913,
        "percent": "5"
    },
    {
        "name": "Pandora",
        "address": "Pandora, 20, Шереметьевская улица, район Марьина Роща, Москва, Центральный федеральный округ, 127521, Россия",
        "lat": 55.8032474,
        "lng": 37.6181189,
        "percent": "12"
    },
    {
        "name": "Pandora",
        "address": "Pandora, 15 с1, Цветной бульвар, Тверской район, Москва, Центральный федеральный округ, 127051, Россия",
        "lat": 55.7710242,
        "lng": 37.6203032,
        "percent": "12"
    },
    {
        "name": "Pandora",
        "address": "Pandora, Большая Дорогомиловская улица, район Дорогомилово, Москва, Центральный федеральный округ, 121248, Россия",
        "lat": 55.7446858,
        "lng": 37.5655282,
        "percent": "12"
    },
    {
        "name": "Pandora",
        "address": "Pandora, 62А, Ленинградский проспект, район Аэропорт, Москва, Центральный федеральный округ, 125190, Россия",
        "lat": 55.8018723,
        "lng": 37.531751,
        "percent": "12"
    },
    {
        "name": "Pandora",
        "address": "Pandora, Кутузовский проспект, район Дорогомилово, Москва, Центральный федеральный округ, 121151, Россия",
        "lat": 55.7468758,
        "lng": 37.5525943,
        "percent": "12"
    },
    {
        "name": "Pandora",
        "address": "Pandora, 4 с1, улица Арбат, 36, район Арбат, Москва, Центральный федеральный округ, 119002, Россия",
        "lat": 55.75184,
        "lng": 37.5980296,
        "percent": "12"
    },
    {
        "name": "Pandora",
        "address": "Pandora, 2, Пресненская набережная, Пресненский район, Москва, Центральный федеральный округ, 123317, Россия",
        "lat": 55.7493315,
        "lng": 37.5412223,
        "percent": "12"
    },
    {
        "name": "Pandora",
        "address": "Pandora, 2 с1, Павелецкая площадь, район Замоскворечье, Москва, Центральный федеральный округ, 115054, Россия",
        "lat": 55.730474,
        "lng": 37.6345089,
        "percent": "12"
    },
    {
        "name": "Adidas",
        "address": "Adidas, 6/3, улица Кузнецкий Мост, 2, 62, Тверской район, Москва, Центральный федеральный округ, 125009, Россия",
        "lat": 55.7612739,
        "lng": 37.6175498,
        "percent": "7"
    },
    {
        "name": "Adidas",
        "address": "Adidas, 2, площадь Киевского Вокзала, район Дорогомилово, Москва, Центральный федеральный округ, 121059, Россия",
        "lat": 55.7444854,
        "lng": 37.5668424,
        "percent": "7"
    },
    {
        "name": "Adidas",
        "address": "Adidas, улица Петровка, 2, 62, Тверской район, Москва, Центральный федеральный округ, 107016, Россия",
        "lat": 55.7605781,
        "lng": 37.6196051,
        "percent": "7"
    },
    {
        "name": "Adidas",
        "address": "Adidas, 33, улица Земляной Вал, Басманный район, Москва, Центральный федеральный округ, 105064, Россия",
        "lat": 55.7574968,
        "lng": 37.6587111,
        "percent": "7"
    },
    {
        "name": "Adidas",
        "address": "Adidas, 23 с1А, улица Красная Пресня, Пресненский район, Москва, Центральный федеральный округ, 123022, Россия",
        "lat": 55.7619274,
        "lng": 37.566643,
        "percent": "7"
    },
    {
        "name": "Adidas",
        "address": "Adidas, 12, Каширское шоссе, район Нагатино-Садовники, Москва, Центральный федеральный округ, 115230, Россия",
        "lat": 55.6644421,
        "lng": 37.6268213,
        "percent": "7"
    },
    {
        "name": "Adidas",
        "address": "Adidas, 4, Ходынский бульвар, Ходынское поле, Хорошёвский район, Москва, Центральный федеральный округ, 125252, Россия",
        "lat": 55.7897493,
        "lng": 37.5334597,
        "percent": "7"
    },
    {
        "name": "Adidas",
        "address": "Adidas, шоссе Энтузиастов, Дангауэровка, район Лефортово, Москва, Центральный федеральный округ, 111024, Россия",
        "lat": 55.7473871,
        "lng": 37.7069932,
        "percent": "7"
    },
    {
        "name": "Adidas",
        "address": "Adidas, 5, Багратионовский проезд, Фили, район Филёвский Парк, Москва, Центральный федеральный округ, 121087, Россия",
        "lat": 55.7435741,
        "lng": 37.5070571,
        "percent": "7"
    },
    {
        "name": "Adidas",
        "address": "Adidas, 3, улица Вавилова, Канатчиково, Донской район, Москва, Центральный федеральный округ, 117449, Россия",
        "lat": 55.7076739,
        "lng": 37.5905255,
        "percent": "7"
    },
    {
        "name": "I AM Studio",
        "address": "I am studio, Лиговский проспект, округ Лиговка-Ямская, Санкт-Петербург, Северо-Западный федеральный округ, 191025, Россия",
        "lat": 59.926888649999995,
        "lng": 30.361613126724137,
        "percent": "15"
    },
    {
        "name": "Vassa",
        "address": "Vassa&Co., 5, Никитский бульвар, 47, район Арбат, Москва, Центральный федеральный округ, 119019, Россия",
        "lat": 55.7532957,
        "lng": 37.6001834,
        "percent": "6"
    },
    {
        "name": "Vassa",
        "address": "Vassa & Co, 4 с2, Товарищеский переулок, Таганский район, Москва, Центральный федеральный округ, 109004, Россия",
        "lat": 55.7417478,
        "lng": 37.6595565,
        "percent": "6"
    },
    {
        "name": "Ralf Ringer",
        "address": "Ralf Ringer, Третье транспортное кольцо, Канатчиково, Донской район, Москва, Центральный федеральный округ, 117449, Россия",
        "lat": 55.7068285,
        "lng": 37.5910362,
        "percent": "9"
    },
    {
        "name": "Ralf Ringer",
        "address": "Ralf ringer, 11 с1, улица Орджоникидзе, Донской район, Москва, Центральный федеральный округ, 117449, Россия",
        "lat": 55.7092397,
        "lng": 37.595173,
        "percent": "9"
    },
    {
        "name": "Ralf Ringer",
        "address": "Ralf Ringer, Загородное шоссе, район Котловка, Москва, Центральный федеральный округ, 117152, Россия",
        "lat": 55.6900803,
        "lng": 37.6019257,
        "percent": "9"
    },
    {
        "name": "Ralf Ringer",
        "address": "Ralf Ringer, Большая Тульская улица, Даниловский район, Москва, Центральный федеральный округ, 115191, Россия",
        "lat": 55.7086661,
        "lng": 37.6223963,
        "percent": "9"
    },
    {
        "name": "Ralf Ringer",
        "address": "Ralf Ringer, 2, площадь Киевского Вокзала, район Дорогомилово, Москва, Центральный федеральный округ, 121059, Россия",
        "lat": 55.7450477,
        "lng": 37.5668369,
        "percent": "9"
    },
    {
        "name": "Ralf Ringer",
        "address": "Ralf Ringer, 6, проспект Вернадского (дублёр), район Раменки, Москва, Центральный федеральный округ, 119311, Россия",
        "lat": 55.6919855,
        "lng": 37.5273336,
        "percent": "9"
    },
    {
        "name": "Ralf Ringer",
        "address": "Ralf Ringer, 2, Пресненская набережная, Пресненский район, Москва, Центральный федеральный округ, 123317, Россия",
        "lat": 55.7493346,
        "lng": 37.5400149,
        "percent": "9"
    },
    {
        "name": "Ralf Ringer",
        "address": "Ralf Ringer, улица Красного Маяка, район Чертаново Центральное, Москва, Центральный федеральный округ, 117519, Россия",
        "lat": 55.6111976,
        "lng": 37.606458,
        "percent": "9"
    },
    {
        "name": "Ralf Ringer",
        "address": "Ralf Ringer, Краснопрудный переулок, Красносельский район, Москва, Центральный федеральный округ, 107140, Россия",
        "lat": 55.7762145,
        "lng": 37.6606982,
        "percent": "9"
    },
    {
        "name": "Ralf Ringer",
        "address": "Ralf Ringer, 7-я Кожуховская улица, Кожухово, Южнопортовый район, Москва, Центральный федеральный округ, 115193, Россия",
        "lat": 55.7104687,
        "lng": 37.6744448,
        "percent": "9"
    },
    {
        "name": "Aizel",
        "address": "Aizel, 18 с2, улица Большая Дмитровка, 18, 62, Тверской район, Москва, Центральный федеральный округ, 103265, Россия",
        "lat": 55.7623986,
        "lng": 37.6141365,
        "percent": "2.5"
    },
    {
        "name": "Timberland",
        "address": "Timberland, 2, Пресненская набережная, Пресненский район, Москва, Центральный федеральный округ, 123317, Россия",
        "lat": 55.7493533,
        "lng": 37.5409271,
        "percent": "6"
    },
    {
        "name": "Gloria Jeans",
        "address": "Gloria Jeans, 86А, проспект Вернадского, Тропарёво-Никулино, Москва, Центральный федеральный округ, 117571, Россия",
        "lat": 55.662544,
        "lng": 37.480736,
        "percent": "20"
    },
    {
        "name": "Gloria Jeans",
        "address": "Gloria Jeans, 1, Новоясеневский проспект, район Ясенево, Москва, Центральный федеральный округ, 117574, Россия",
        "lat": 55.6193392,
        "lng": 37.5090195,
        "percent": "20"
    },
    {
        "name": "Gloria Jeans",
        "address": "Gloria Jeans, 15, Аминьевское шоссе (дублёр), район Очаково-Матвеевское, Москва, Центральный федеральный округ, 119517, Россия",
        "lat": 55.7063541,
        "lng": 37.4540931,
        "percent": "20"
    },
    {
        "name": "Gloria Jeans",
        "address": "Gloria Jeans, 109, Ленинский проспект, Обручевский район, Москва, Центральный федеральный округ, 119421, Россия",
        "lat": 55.663812,
        "lng": 37.5117895,
        "percent": "20"
    },
    {
        "name": "Gloria Jeans",
        "address": "Gloria Jeans, с20, МКАД, 47-й километр, Тропарёво-Никулино, Москва, Центральный федеральный округ, 117607, Россия",
        "lat": 55.658764,
        "lng": 37.429986,
        "percent": "20"
    },
    {
        "name": "Gloria Jeans",
        "address": "Gloria Jeans, Новоясеневский проспект, район Ясенево, Москва, Центральный федеральный округ, 117632, Россия",
        "lat": 55.6188048,
        "lng": 37.5068066,
        "percent": "20"
    },
    {
        "name": "Gloria Jeans",
        "address": "Gloria Jeans, Ясногорская улица, район Ясенево, Москва, Центральный федеральный округ, 117588, Россия",
        "lat": 55.6064798,
        "lng": 37.5359755,
        "percent": "20"
    },
    {
        "name": "Gloria Jeans",
        "address": "Gloria Jeans, Можайское шоссе (дублёр), Можайский, Можайский район, Москва, Центральный федеральный округ, 121451, Россия",
        "lat": 55.7185252,
        "lng": 37.4204824,
        "percent": "20"
    },
    {
        "name": "Gloria Jeans",
        "address": "Gloria Jeans, 29А, улица Каховка, район Черёмушки, Москва, Центральный федеральный округ, 117461, Россия",
        "lat": 55.656206,
        "lng": 37.569284,
        "percent": "20"
    },
    {
        "name": "Gloria Jeans",
        "address": "Gloria Jeans, 57, Кутузовский проспект, Давыдково, район Фили-Давыдково, Москва, Центральный федеральный округ, 121352, Россия",
        "lat": 55.7284109,
        "lng": 37.4775463,
        "percent": "20"
    },
    {
        "name": "KUPIVIP.RU",
        "address": "KupiVIP.ru, 7-я Кожуховская улица, Кожухово, Южнопортовый район, Москва, Центральный федеральный округ, 115193, Россия",
        "lat": 55.7108165,
        "lng": 37.6763597,
        "percent": "10"
    },
    {
        "name": "KUPIVIP.RU",
        "address": "KupiVIP.ru, 7-я Кожуховская улица, Кожухово, Южнопортовый район, Москва, Центральный федеральный округ, 115193, Россия",
        "lat": 55.7107696,
        "lng": 37.6762068,
        "percent": "10"
    },
    {
        "name": "NEW BALANCE",
        "address": "New Balance, Киевское шоссе, Акатово, поселение Московский, Москва, Центральный федеральный округ, 119027, Россия",
        "lat": 55.6096617,
        "lng": 37.3337193,
        "percent": "3"
    },
    {
        "name": "NEW BALANCE",
        "address": "New Balance, 290, Orchard Road, Orchard, Singapore, Central, 238859, Singapore",
        "lat": 1.303645,
        "lng": 103.8357005,
        "percent": "3"
    },
    {
        "name": "NEW BALANCE",
        "address": "New Balance, 2, Jurong East Street 21, Jurong East, Singapore, Southwest, 609601, Singapore",
        "lat": 1.3351623,
        "lng": 103.7465109,
        "percent": "3"
    },
    {
        "name": "NEW BALANCE",
        "address": "New Balance, Stadium Crescent, Tanjong Rhu, Kallang, Southeast, 397692, Singapore",
        "lat": 1.3026719,
        "lng": 103.8739958,
        "percent": "3"
    },
    {
        "name": "NEW BALANCE",
        "address": "New Balance, 10, Eunos Road 8, Geylang, Singapore, Southeast, 408600, Singapore",
        "lat": 1.3190129,
        "lng": 103.8936842,
        "percent": "3"
    },
    {
        "name": "NEW BALANCE",
        "address": "New Balance, Thomson Road, Novena, Singapore, Central, 307685, Singapore",
        "lat": 1.3197899,
        "lng": 103.8438253,
        "percent": "3"
    },
    {
        "name": "NEW BALANCE",
        "address": "New Balance, Marine Parade Central, Marine Parade, Southeast, 449408, Singapore",
        "lat": 1.3011876500000001,
        "lng": 103.90540955,
        "percent": "3"
    },
    {
        "name": "NEW BALANCE",
        "address": "New Balance, Новорижское шоссе, городской округ Красногорск, Московская область, Центральный федеральный округ, 143420, Россия",
        "lat": 55.8011792,
        "lng": 37.2792426,
        "percent": "3"
    },
    {
        "name": "NEW BALANCE",
        "address": "New Balance, T1 Departure Crescent, Changi, Southeast, 819666, Singapore",
        "lat": 1.360034,
        "lng": 103.99012513137254,
        "percent": "3"
    },
    {
        "name": "NEW BALANCE",
        "address": "New Balance, 28, Тверской бульвар, 49, Тверской район, Москва, Центральный федеральный округ, 123104, Россия",
        "lat": 55.764094,
        "lng": 37.6059611,
        "percent": "3"
    },
    {
        "name": "NIKE",
        "address": "Nike, 211 к2, проспект Мира (дублёр), Свиблово, район Свиблово, Москва, Центральный федеральный округ, 129226, Россия",
        "lat": 55.845855,
        "lng": 37.662093,
        "percent": "4"
    },
    {
        "name": "NIKE",
        "address": "Nike, Моховая улица, 18, 62, Тверской район, Москва, Центральный федеральный округ, 103265, Россия",
        "lat": 55.75652595,
        "lng": 37.615429810193,
        "percent": "4"
    },
    {
        "name": "NIKE",
        "address": "Nike, улица Арбат, 36, район Арбат, Москва, Центральный федеральный округ, 119002, Россия",
        "lat": 55.7508596,
        "lng": 37.5961632,
        "percent": "4"
    },
    {
        "name": "NIKE",
        "address": "Nike, 15 с1, Цветной бульвар, Тверской район, Москва, Центральный федеральный округ, 127051, Россия",
        "lat": 55.771065,
        "lng": 37.6201165,
        "percent": "4"
    },
    {
        "name": "NIKE",
        "address": "Nike, площадь Курского Вокзала, Басманный район, Москва, Центральный федеральный округ, 105064, Россия",
        "lat": 55.7573399,
        "lng": 37.6590384,
        "percent": "4"
    },
    {
        "name": "Reebok",
        "address": "Reebok, 56, Профсоюзная улица, Обручевский район, Москва, Центральный федеральный округ, 117393, Россия",
        "lat": 55.6700107,
        "lng": 37.5526327,
        "percent": "7"
    },
    {
        "name": "Reebok",
        "address": "Reebok, 2, Пресненская набережная, Пресненский район, Москва, Центральный федеральный округ, 123317, Россия",
        "lat": 55.7488112,
        "lng": 37.5400689,
        "percent": "7"
    },
    {
        "name": "Reebok",
        "address": "Reebok, 86А, проспект Вернадского, Тропарёво-Никулино, Москва, Центральный федеральный округ, 117571, Россия",
        "lat": 55.6632721,
        "lng": 37.4816746,
        "percent": "7"
    },
    {
        "name": "Reebok",
        "address": "Reebok, 19, Ярцевская улица, район Кунцево, Москва, Центральный федеральный округ, 121351, Россия",
        "lat": 55.7388977,
        "lng": 37.4105086,
        "percent": "7"
    },
    {
        "name": "Reebok",
        "address": "Reebok, Коммунарское шоссе, поселение Сосенское, Москва, Центральный федеральный округ, 142704, Россия",
        "lat": 55.6027874,
        "lng": 37.492037785368694,
        "percent": "7"
    },
    {
        "name": "Reebok",
        "address": "Reebok, Моховая улица, 18, 40, Тверской район, Москва, Центральный федеральный округ, 103265, Россия",
        "lat": 55.75631735,
        "lng": 37.615136390061025,
        "percent": "7"
    },
    {
        "name": "Reebok",
        "address": "Reebok, 211 к2, проспект Мира (дублёр), Свиблово, район Свиблово, Москва, Центральный федеральный округ, 129226, Россия",
        "lat": 55.8461923,
        "lng": 37.6637906,
        "percent": "7"
    },
    {
        "name": "Zarina",
        "address": "zarina, с1, 21-й км Калужского шоссе, поселение Сосенское, Москва, Центральный федеральный округ, 142704, Россия",
        "lat": 55.6050092,
        "lng": 37.4902612,
        "percent": "9"
    },
    {
        "name": "Zarina",
        "address": "Zarina, 10 к1, Совхозная улица, район Люблино, Москва, Центральный федеральный округ, 109382, Россия",
        "lat": 55.6710135,
        "lng": 37.7529772,
        "percent": "9"
    },
    {
        "name": "Zarina",
        "address": "Zarina, МКАД, 25-й километр, Орехово-Борисово Южное, Москва, Центральный федеральный округ, 115582, Россия",
        "lat": 55.587797,
        "lng": 37.7251732,
        "percent": "9"
    },
    {
        "name": "GATE31",
        "address": "Gate31, 3/1, Тверской бульвар, 48, Пресненский район, Москва, Центральный федеральный округ, 119049, Россия",
        "lat": 55.7588085,
        "lng": 37.5978888,
        "percent": "10"
    },
    {
        "name": "GATE31",
        "address": "Gate31, Савёловская линия, Бутырский район, Москва, Центральный федеральный округ, 127015, Россия",
        "lat": 55.8047972,
        "lng": 37.5856125,
        "percent": "10"
    },
    {
        "name": "No one",
        "address": "No One, 12 с2, Тверская улица, 50, Тверской район, Москва, Центральный федеральный округ, 127238, Россия",
        "lat": 55.7635635,
        "lng": 37.607532,
        "percent": "7"
    },
    {
        "name": "No one",
        "address": "No one, 28/35 с1А, Новинский бульвар, район Арбат, Москва, Центральный федеральный округ, 121069, Россия",
        "lat": 55.7572412,
        "lng": 37.5849667,
        "percent": "7"
    },
    {
        "name": "No one",
        "address": "NO ONE, 8, Новорязанское шоссе, 22-й км Новорязанского шоссе, Люберцы, городской округ Люберцы, Московская область, Центральный федеральный округ, 140053, Россия",
        "lat": 55.6614122,
        "lng": 37.8813963,
        "percent": "7"
    },
    {
        "name": "Quicksilver",
        "address": "Quicksilver, 3 к1, улица Мичуринский Проспект, Олимпийская Деревня, Олимпийская деревня, Тропарёво-Никулино, Москва, Центральный федеральный округ, 119332, Россия",
        "lat": 55.6783625,
        "lng": 37.467621,
        "percent": "12"
    },
    {
        "name": "SEIKO",
        "address": "Seiko, 10/2 с2Б, Никольская улица, 2, Китай-город, Тверской район, Москва, Центральный федеральный округ, 109012, Россия",
        "lat": 55.7584745,
        "lng": 37.6250843,
        "percent": "9"
    },
    {
        "name": "Ostin",
        "address": "Ostin, 6, Венёвская улица, Гавриково, район Южное Бутово, Москва, Центральный федеральный округ, 117624, Россия",
        "lat": 55.5479377,
        "lng": 37.5432477,
        "percent": "6"
    },
    {
        "name": "Ostin",
        "address": "Ostin, 13А, Кировоградская улица, район Чертаново Центральное, Москва, Центральный федеральный округ, 117519, Россия",
        "lat": 55.6120795,
        "lng": 37.6078116,
        "percent": "6"
    },
    {
        "name": "Ostin",
        "address": "OSTIN, 17, Сигнальный проезд, район Отрадное, Москва, Центральный федеральный округ, 127106, Россия",
        "lat": 55.8512408,
        "lng": 37.5973211,
        "percent": "6"
    },
    {
        "name": "Ostin",
        "address": "Ostin, 12, улица Декабристов, район Отрадное, Москва, Центральный федеральный округ, 127560, Россия",
        "lat": 55.8633884,
        "lng": 37.6024366,
        "percent": "6"
    },
    {
        "name": "Ostin",
        "address": "Ostin, Люблинская улица (дублёр), район Марьино, Москва, Центральный федеральный округ, 109369, Россия",
        "lat": 55.6489971,
        "lng": 37.745216,
        "percent": "6"
    },
    {
        "name": "Ostin",
        "address": "Ostin, 56, Сходненская улица, район Южное Тушино, Москва, Центральный федеральный округ, 125363, Россия",
        "lat": 55.8506727,
        "lng": 37.4433679,
        "percent": "6"
    },
    {
        "name": "Ostin",
        "address": "Ostin, 64, Лихачёвский проспект, Лихачёво, Долгопрудный, городской округ Долгопрудный, Московская область, Центральный федеральный округ, 141700, Россия",
        "lat": 55.9310439,
        "lng": 37.494828,
        "percent": "6"
    },
    {
        "name": "AliExpress",
        "address": "Aliexpress, 8, 1-я Хуторская улица, Савёловский район, Москва, Центральный федеральный округ, 127287, Россия",
        "lat": 55.8029069,
        "lng": 37.5704081,
        "percent": "2.5"
    },
    {
        "name": "AliExpress",
        "address": "AliExpress, 14 к1, Туристская улица (дублёр), район Северное Тушино, Москва, Центральный федеральный округ, 125459, Россия",
        "lat": 55.8536244,
        "lng": 37.4229462,
        "percent": "2.5"
    },
    {
        "name": "AliExpress",
        "address": "Aliexpress, 63, улица Ленина, Изумрудные холмы, Чернево, Красногорск, городской округ Красногорск, Московская область, Центральный федеральный округ, 143408, Россия",
        "lat": 55.8366948,
        "lng": 37.2948316,
        "percent": "2.5"
    },
    {
        "name": "AliExpress",
        "address": "AliExpress, 5А, улица Октября, 7-й микрорайон, Южный Реутов, Реутов, городской округ Реутов, Московская область, Центральный федеральный округ, 143965, Россия",
        "lat": 55.7500662,
        "lng": 37.8534499,
        "percent": "2.5"
    },
    {
        "name": "Sokolov",
        "address": "Sokolov, Гаврикова улица, Красносельский район, Москва, Центральный федеральный округ, 107140, Россия",
        "lat": 55.7851552,
        "lng": 37.66549,
        "percent": "5"
    },
    {
        "name": "Sokolov",
        "address": "Sokolov, улица Зацепский Вал, район Замоскворечье, Москва, Центральный федеральный округ, 115054, Россия",
        "lat": 55.7309949,
        "lng": 37.6385672,
        "percent": "5"
    },
    {
        "name": "Sokolov",
        "address": "Sokolov, 64, Лихачёвский проспект, Лихачёво, Долгопрудный, городской округ Долгопрудный, Московская область, Центральный федеральный округ, 141700, Россия",
        "lat": 55.9310255,
        "lng": 37.4942552,
        "percent": "5"
    },
    {
        "name": "Sokolov",
        "address": "SOKOLOV, 3-й проезд Марьиной Рощи, район Марьина Роща, Москва, Центральный федеральный округ, 129594, Россия",
        "lat": 55.7960915,
        "lng": 37.616763996089325,
        "percent": "5"
    },
    {
        "name": "Sokolov",
        "address": "Sokolov, Щёлковское шоссе (дублёр), район Гольяново, Москва, Центральный федеральный округ, 105215, Россия",
        "lat": 55.8112722,
        "lng": 37.8016448,
        "percent": "5"
    },
    {
        "name": "Sokolov",
        "address": "Sokolov, Дубравная улица, район Митино, Москва, Центральный федеральный округ, 123430, Россия",
        "lat": 55.8459464,
        "lng": 37.3579041,
        "percent": "5"
    },
    {
        "name": "Stradivarius (Страдивариус)",
        "address": "Stradivarius, Моховая улица, 18, 40, Тверской район, Москва, Центральный федеральный округ, 103265, Россия",
        "lat": 55.75614555,
        "lng": 37.614524253919356,
        "percent": "5"
    },
    {
        "name": "Stradivarius (Страдивариус)",
        "address": "Stradivarius, 12, Каширское шоссе, район Нагатино-Садовники, Москва, Центральный федеральный округ, 115230, Россия",
        "lat": 55.664343,
        "lng": 37.627632,
        "percent": "5"
    },
    {
        "name": "Stradivarius (Страдивариус)",
        "address": "Stradivarius, с1, 21-й км Калужского шоссе, поселение Сосенское, Москва, Центральный федеральный округ, 142704, Россия",
        "lat": 55.6047177,
        "lng": 37.4909259,
        "percent": "5"
    },
    {
        "name": "Stradivarius (Страдивариус)",
        "address": "Stradivarius, МКАД, 25-й километр, Орехово-Борисово Южное, Москва, Центральный федеральный округ, 115582, Россия",
        "lat": 55.5863126,
        "lng": 37.7249882,
        "percent": "5"
    },
    {
        "name": "Stradivarius (Страдивариус)",
        "address": "Stradivarius, 5, 1-й Покровский проезд, микрорайон Белая Дача, Котельники, городской округ Котельники, Московская область, Центральный федеральный округ, 140055, Россия",
        "lat": 55.6587358,
        "lng": 37.844258,
        "percent": "5"
    },
    {
        "name": "Guess",
        "address": "Guess, улица Шекспира, КП «Бристоль», Акатово, поселение Московский, Москва, Центральный федеральный округ, 119027, Россия",
        "lat": 55.610206,
        "lng": 37.3326601,
        "percent": "6"
    },
    {
        "name": "Guess",
        "address": "Guess, 10, Bayfront Avenue, Bayfront, Downtown Core, Singapore, Central, 018956, Singapore",
        "lat": 1.2833235,
        "lng": 103.8589047,
        "percent": "6"
    },
    {
        "name": "Guess",
        "address": "Guess, 391, Orchard Road, Orchard, Singapore, Central, 238872, Singapore",
        "lat": 1.3031634,
        "lng": 103.8339871,
        "percent": "6"
    },
    {
        "name": "United Colors Of Benetton",
        "address": "United Colors of Benetton, улица Красная Пресня, Пресненский район, Москва, Центральный федеральный округ, 123022, Россия",
        "lat": 55.763110499999996,
        "lng": 37.56408098600714,
        "percent": "2.5"
    },
    {
        "name": "United Colors Of Benetton",
        "address": "United Colors of Benetton, 19, Тверская улица, 49, Тверской район, Москва, Центральный федеральный округ, 127006, Россия",
        "lat": 55.7652711,
        "lng": 37.6038178,
        "percent": "2.5"
    },
    {
        "name": "United Colors Of Benetton",
        "address": "United colors of Benetton, 13А, Кировоградская улица, район Чертаново Центральное, Москва, Центральный федеральный округ, 117519, Россия",
        "lat": 55.6125177,
        "lng": 37.6056895,
        "percent": "2.5"
    },
    {
        "name": "United Colors Of Benetton",
        "address": "United colors of Benetton, 4, 1-й Покровский проезд, микрорайон Белая Дача, Котельники, городской округ Котельники, Московская область, Центральный федеральный округ, 140054, Россия",
        "lat": 55.6552245,
        "lng": 37.8426433,
        "percent": "2.5"
    },
    {
        "name": "Консул",
        "address": "Консул, 35, Кутузовский проспект, район Дорогомилово, Москва, Центральный федеральный округ, 121165, Россия",
        "lat": 55.7407669,
        "lng": 37.5384516,
        "percent": "8"
    },
    {
        "name": "Консул",
        "address": "Консул, улица Арбат, 36, район Арбат, Москва, Центральный федеральный округ, 119002, Россия",
        "lat": 55.7479847,
        "lng": 37.5871285,
        "percent": "8"
    },
    {
        "name": "Консул",
        "address": "Консул, 25/12, Тверская улица, 49, Тверской район, Москва, Центральный федеральный округ, 123104, Россия",
        "lat": 55.7678418,
        "lng": 37.5992209,
        "percent": "8"
    },
    {
        "name": "Консул",
        "address": "Консул, Новокрымский проезд, район Хамовники, Москва, Центральный федеральный округ, 119034, Россия",
        "lat": 55.7358898,
        "lng": 37.5952501,
        "percent": "8"
    },
    {
        "name": "Консул",
        "address": "Консул, 24, Ленинский проспект, Донской район, Москва, Центральный федеральный округ, 127238, Россия",
        "lat": 55.7145542,
        "lng": 37.5901908,
        "percent": "8"
    },
    {
        "name": "Консул",
        "address": "Консул, 28, Дирижабельная улица, посёлок Краснополянской сельхозшколы, Водники, Долгопрудный, городской округ Долгопрудный, Московская область, Центральный федеральный округ, 141707, Россия",
        "lat": 55.9466708,
        "lng": 37.5071177,
        "percent": "8"
    },
    {
        "name": "Love Republic",
        "address": "Love Republic, шоссе Энтузиастов, Дангауэровка, район Лефортово, Москва, Центральный федеральный округ, 111024, Россия",
        "lat": 55.74807,
        "lng": 37.7075082,
        "percent": "6"
    },
    {
        "name": "Love Republic",
        "address": "Love Republic, площадь Курского Вокзала, Басманный район, Москва, Центральный федеральный округ, 105064, Россия",
        "lat": 55.7570128,
        "lng": 37.6595825,
        "percent": "6"
    },
    {
        "name": "Love Republic",
        "address": "Love Republic, Третье транспортное кольцо, Даниловский район, Москва, Центральный федеральный округ, 115191, Россия",
        "lat": 55.7053475,
        "lng": 37.6373416,
        "percent": "6"
    },
    {
        "name": "Love Republic",
        "address": "Love Republic, 211 к1, проспект Мира (дублёр), Свиблово, район Свиблово, Москва, Центральный федеральный округ, 129226, Россия",
        "lat": 55.8438722,
        "lng": 37.6624364,
        "percent": "6"
    },
    {
        "name": "Love Republic",
        "address": "LOVE REPUBLIC, 12, Каширское шоссе, район Нагатино-Садовники, Москва, Центральный федеральный округ, 115230, Россия",
        "lat": 55.6635622,
        "lng": 37.62716,
        "percent": "6"
    },
    {
        "name": "Love Republic",
        "address": "Love Republic, 2, МКАД, 2-й километр, район Ивановское, Реутов, Москва, Центральный федеральный округ, 143960, Россия",
        "lat": 55.764424,
        "lng": 37.845368,
        "percent": "6"
    },
    {
        "name": "Love Republic",
        "address": "LOVE REPUBLIC, 14 к3, Ореховый бульвар, Орехово-Борисово Южное, Москва, Центральный федеральный округ, 115563, Россия",
        "lat": 55.6099174,
        "lng": 37.7205598,
        "percent": "6"
    },
    {
        "name": "Love Republic",
        "address": "Love Republic, Университетская улица, микрорайон Шараповка, Мытищи, городской округ Мытищи, Московская область, Центральный федеральный округ, 141006, Россия",
        "lat": 55.9167149,
        "lng": 37.7589396,
        "percent": "6"
    },
    {
        "name": "Love Republic",
        "address": "Love Republic, МКАД, 25-й километр, Орехово-Борисово Южное, Москва, Центральный федеральный округ, 115582, Россия",
        "lat": 55.5866403,
        "lng": 37.7255246,
        "percent": "6"
    },
    {
        "name": "Love Republic",
        "address": "Love Republic, Коммерческий проезд, микрорайон Силикат, Котельники, городской округ Котельники, Московская область, Центральный федеральный округ, 140054, Россия",
        "lat": 55.6528507,
        "lng": 37.8447488,
        "percent": "6"
    },
    {
        "name": "Finn Flare",
        "address": "Finn Flare, 40, Митинская улица, район Митино, Москва, Центральный федеральный округ, 123430, Россия",
        "lat": 55.8475108,
        "lng": 37.3594321,
        "percent": "6.5"
    },
    {
        "name": "Finn Flare",
        "address": "Finn Flare, 56, Сходненская улица, район Южное Тушино, Москва, Центральный федеральный округ, 125363, Россия",
        "lat": 55.8504891,
        "lng": 37.4450379,
        "percent": "6.5"
    },
    {
        "name": "Finn Flare",
        "address": "Finn Flare, 1, Крюковская площадь, район Силино, Зеленоград, Москва, Центральный федеральный округ, 124575, Россия",
        "lat": 55.9826306,
        "lng": 37.174595,
        "percent": "6.5"
    },
    {
        "name": "Finn Flare",
        "address": "Finn Flare, 62 к2, Новослободская улица, Тверской район, Москва, Центральный федеральный округ, 127055, Россия",
        "lat": 55.7906198,
        "lng": 37.5908569,
        "percent": "6.5"
    },
    {
        "name": "Vans",
        "address": "Vans, Моховая улица, 18, 40, Тверской район, Москва, Центральный федеральный округ, 103009, Россия",
        "lat": 55.75560025,
        "lng": 37.61471080654512,
        "percent": "6"
    },
    {
        "name": "Vans",
        "address": "Vans, 武昌街二段, 萬壽里, 萬華區, 臺北市, 108002, 臺灣",
        "lat": 25.0448913,
        "lng": 121.5057233,
        "percent": "6"
    },
    {
        "name": "Vans",
        "address": "Vans, 180, 汀州路三段, 水源里, 中正區, 公館, 臺北市, 100, 臺灣",
        "lat": 25.0129963,
        "lng": 121.5347822,
        "percent": "6"
    },
    {
        "name": "Vans",
        "address": "Vans, 8, Новорязанское шоссе, 22-й км Новорязанского шоссе, Люберцы, городской округ Люберцы, Московская область, Центральный федеральный округ, 140053, Россия",
        "lat": 55.6611431,
        "lng": 37.8789261,
        "percent": "6"
    },
    {
        "name": "Vans",
        "address": "Vans, 5, 1-й Покровский проезд, микрорайон Белая Дача, Котельники, городской округ Котельники, Московская область, Центральный федеральный округ, 140055, Россия",
        "lat": 55.658078,
        "lng": 37.8462467,
        "percent": "6"
    },
    {
        "name": "Бронницкий Ювелир",
        "address": "Бронницкий ювелир, 6, Тверская улица, 18, 55, Тверской район, Москва, Центральный федеральный округ, 125009, Россия",
        "lat": 55.7597338,
        "lng": 37.611862,
        "percent": "4"
    },
    {
        "name": "Бронницкий Ювелир",
        "address": "Бронницкий ювелир, 2, площадь Киевского Вокзала, район Дорогомилово, Москва, Центральный федеральный округ, 121059, Россия",
        "lat": 55.7443436,
        "lng": 37.5650937,
        "percent": "4"
    },
    {
        "name": "Бронницкий Ювелир",
        "address": "Бронницкий ювелир, Шереметьевская улица, район Марьина Роща, Москва, Центральный федеральный округ, 129594, Россия",
        "lat": 55.7953187,
        "lng": 37.6168855,
        "percent": "4"
    },
    {
        "name": "Бронницкий Ювелир",
        "address": "Бронницкий ювелир, площадь Курского Вокзала, Басманный район, Москва, Центральный федеральный округ, 105064, Россия",
        "lat": 55.7566403,
        "lng": 37.6595932,
        "percent": "4"
    },
    {
        "name": "Бронницкий Ювелир",
        "address": "Бронницкий ювелир, 20, Шереметьевская улица, район Марьина Роща, Москва, Центральный федеральный округ, 127521, Россия",
        "lat": 55.8030602,
        "lng": 37.6184659,
        "percent": "4"
    },
    {
        "name": "Бронницкий Ювелир",
        "address": "Бронницкий ювелир, Коломенский проезд, район Нагатино-Садовники, Москва, Центральный федеральный округ, 115230, Россия",
        "lat": 55.6644093,
        "lng": 37.6278304,
        "percent": "4"
    },
    {
        "name": "Бронницкий Ювелир",
        "address": "Бронницкий ювелир, шоссе Энтузиастов, Дангауэровка, район Лефортово, Москва, Центральный федеральный округ, 111024, Россия",
        "lat": 55.7476878,
        "lng": 37.7069879,
        "percent": "4"
    },
    {
        "name": "Бронницкий Ювелир",
        "address": "Бронницкий ювелир, 211 к2, проспект Мира (дублёр), Свиблово, район Свиблово, Москва, Центральный федеральный округ, 129226, Россия",
        "lat": 55.8454423,
        "lng": 37.6621252,
        "percent": "4"
    },
    {
        "name": "Бронницкий Ювелир",
        "address": "Бронницкий ювелир, 3, Щербаковская улица, район Соколиная Гора, Москва, Центральный федеральный округ, 105318, Россия",
        "lat": 55.7825885,
        "lng": 37.7233196,
        "percent": "4"
    },
    {
        "name": "Бронницкий Ювелир",
        "address": "Бронницкий ювелир, улица Менжинского, Бабушкинский район, Москва, Центральный федеральный округ, 129282, Россия",
        "lat": 55.8692344,
        "lng": 37.6629219,
        "percent": "4"
    },
    {
        "name": "Print Bar",
        "address": "Print bar, 7-9, Краснопрудная улица, Красносельский район, Москва, Центральный федеральный округ, 107140, Россия",
        "lat": 55.7780447,
        "lng": 37.6620024,
        "percent": "10"
    },
    {
        "name": "Hoff",
        "address": "Hoff, 4, Ходынский бульвар, Ходынское поле, Хорошёвский район, Москва, Центральный федеральный округ, 125252, Россия",
        "lat": 55.7910605,
        "lng": 37.5278909,
        "percent": "7"
    },
    {
        "name": "Hoff",
        "address": "Hoff, 163А к1, Дмитровское шоссе (дублёр), район Северный, Москва, Центральный федеральный округ, 127495, Россия",
        "lat": 55.9090166,
        "lng": 37.5394946,
        "percent": "7"
    },
    {
        "name": "Mothercare",
        "address": "Mothercare, 8, Преображенская площадь, Черкизово, район Преображенское, Москва, Центральный федеральный округ, 107061, Россия",
        "lat": 55.7950546,
        "lng": 37.7128153,
        "percent": "7"
    },
    {
        "name": "Mothercare",
        "address": "Mothercare, Газгольдерная улица, Нижегородский район, Москва, Центральный федеральный округ, 109391, Россия",
        "lat": 55.7291514,
        "lng": 37.7311961,
        "percent": "7"
    },
    {
        "name": "Mothercare",
        "address": "Mothercare, 5 с1, Театральный проезд, 6, 62, Мещанский район, Москва, Центральный федеральный округ, 109012, Россия",
        "lat": 55.7599981,
        "lng": 37.6244352,
        "percent": "7"
    },
    {
        "name": "Mothercare",
        "address": "Mothercare, 17, Сигнальный проезд, район Отрадное, Москва, Центральный федеральный округ, 127106, Россия",
        "lat": 55.8510502,
        "lng": 37.597183,
        "percent": "7"
    },
    {
        "name": "Mothercare",
        "address": "Mothercare, 20, Шереметьевская улица, район Марьина Роща, Москва, Центральный федеральный округ, 127521, Россия",
        "lat": 55.8039579,
        "lng": 37.6181996,
        "percent": "7"
    },
    {
        "name": "Mothercare",
        "address": "Mothercare, 2, площадь Киевского Вокзала, район Дорогомилово, Москва, Центральный федеральный округ, 121059, Россия",
        "lat": 55.744825,
        "lng": 37.5664956,
        "percent": "7"
    },
    {
        "name": "Mothercare",
        "address": "Mothercare, 5Д, проспект Королёва, Новые Подлипки, Королёв, городской округ Королёв, Московская область, Центральный федеральный округ, 141077, Россия",
        "lat": 55.9218145,
        "lng": 37.843559,
        "percent": "7"
    },
    {
        "name": "Mothercare",
        "address": "Mothercare, улица Миклухо-Маклая, район Коньково, Москва, Центральный федеральный округ, 117279, Россия",
        "lat": 55.6402383,
        "lng": 37.53268,
        "percent": "7"
    },
    {
        "name": "Mothercare",
        "address": "Mothercare, 38 к1, Рублёвское шоссе (дублёр), Крылатское, район Крылатское, Москва, Центральный федеральный округ, 121609, Россия",
        "lat": 55.7496648,
        "lng": 37.4146973,
        "percent": "7"
    },
    {
        "name": "Mothercare",
        "address": "Mothercare, 83, Ленинский проспект (дублёр), Ломоносовский район, Москва, Центральный федеральный округ, 119313, Россия",
        "lat": 55.6819009,
        "lng": 37.5373929,
        "percent": "7"
    },
    {
        "name": "Gipfel",
        "address": "Хоҷаи Ғарибон, Ноҳияи Рашт, Ноҳияҳои тобеи ҷумҳурӣ, 735450, Тоҷикистон",
        "lat": 39.0716629,
        "lng": 70.151442,
        "percent": "6"
    },
    {
        "name": "Gipfel",
        "address": "Сари Яктак, Ноҳияи Рашт, Ноҳияҳои тобеи ҷумҳурӣ, 735450, Тоҷикистон",
        "lat": 39.1249688,
        "lng": 70.0867311,
        "percent": "6"
    },
    {
        "name": "Gipfel",
        "address": "Кӯҳи Шавруз, Ноҳияи Нуробод, Ноҳияҳои тобеи ҷумҳурӣ, 735420, Тоҷикистон",
        "lat": 38.8141502,
        "lng": 70.1296607,
        "percent": "6"
    },
    {
        "name": "Gipfel",
        "address": "Dushokha, Ноҳияи Рашт, Ноҳияҳои тобеи ҷумҳурӣ, 735450, Тоҷикистон",
        "lat": 39.1653973,
        "lng": 70.0356305,
        "percent": "6"
    },
    {
        "name": "Gipfel",
        "address": "Бодравак, Ноҳияи Рашт, Ноҳияҳои тобеи ҷумҳурӣ, 735450, Тоҷикистон",
        "lat": 39.2461418,
        "lng": 69.9645313,
        "percent": "6"
    },
    {
        "name": "Gipfel",
        "address": "Гориф, Ноҳияи Рашт, Ноҳияҳои тобеи ҷумҳурӣ, 735450, Тоҷикистон",
        "lat": 39.146688,
        "lng": 69.8204729,
        "percent": "6"
    },
    {
        "name": "Gipfel",
        "address": "Сиёҳкӯҳ, Ноҳияи Нуробод, Ноҳияҳои тобеи ҷумҳурӣ, 735420, Тоҷикистон",
        "lat": 38.9156624,
        "lng": 70.4180819,
        "percent": "6"
    },
    {
        "name": "Gipfel",
        "address": "Тутеклик, Ноҳияи Рашт, Ноҳияҳои тобеи ҷумҳурӣ, 735450, Тоҷикистон",
        "lat": 39.3190609,
        "lng": 70.0602114,
        "percent": "6"
    },
    {
        "name": "Gipfel",
        "address": "МГУ, Ноҳияи Рашт, Ноҳияҳои тобеи ҷумҳурӣ, 735450, Тоҷикистон",
        "lat": 39.3288998,
        "lng": 70.0445454,
        "percent": "6"
    },
    {
        "name": "Gipfel",
        "address": "Javdara, Ноҳияи Ваҳдат, Ноҳияҳои тобеи ҷумҳурӣ, 735400, Тоҷикистон",
        "lat": 38.9912481,
        "lng": 69.6570639,
        "percent": "6"
    },
    {
        "name": "Твой Дом",
        "address": "Твой Дом, МКАД, 25-й километр, район Бирюлёво Восточное, Москва, Центральный федеральный округ, 115582, Россия",
        "lat": 55.58539505,
        "lng": 37.720505230296126,
        "percent": "6.5"
    },
    {
        "name": "Твой Дом",
        "address": "Твой Дом, 14, Хорошёвский проезд, Немчиновка, Одинцовский городской округ, Московская область, Центральный федеральный округ, 143025, Россия",
        "lat": 55.7205592,
        "lng": 37.3785713,
        "percent": "6.5"
    },
    {
        "name": "Твой Дом",
        "address": "Твой Дом (корпус 2), 4, Международная улица, Павшинская Пойма, городской округ Красногорск, Московская область, Центральный федеральный округ, 125430, Россия",
        "lat": 55.815823449999996,
        "lng": 37.38805522617442,
        "percent": "6.5"
    },
    {
        "name": "Твой Дом",
        "address": "Твой Дом (корпус 1), 6, Международная улица, Павшинская Пойма, городской округ Красногорск, Московская область, Центральный федеральный округ, 125430, Россия",
        "lat": 55.817247800000004,
        "lng": 37.38766683977794,
        "percent": "6.5"
    },
    {
        "name": "Твой Дом",
        "address": "Твой дом, Осташковское шоссе, Тайнинское, городской округ Мытищи, Московская область, Центральный федеральный округ, 127224, Россия",
        "lat": 55.8987195,
        "lng": 37.674214433472414,
        "percent": "6.5"
    },
    {
        "name": "Toy.ru",
        "address": "TOY.RU, 12, Малая Сухаревская площадь, Мещанский район, Москва, Центральный федеральный округ, 129010, Россия",
        "lat": 55.772421,
        "lng": 37.6315477,
        "percent": "4"
    },
    {
        "name": "Дочки Сыночки",
        "address": "Дочки-Сыночки, 4А, Лобненская улица, Дмитровский, Дмитровский район, Москва, Центральный федеральный округ, 127411, Россия",
        "lat": 55.8895632,
        "lng": 37.5393043,
        "percent": "5"
    },
    {
        "name": "Дочки Сыночки",
        "address": "Дочки-Сыночки, 109, Профсоюзная улица, район Коньково, Москва, Центральный федеральный округ, 117647, Россия",
        "lat": 55.6330448,
        "lng": 37.5211034,
        "percent": "5"
    },
    {
        "name": "Dominos Pizza",
        "address": "Домино’c Пицца, 13, Советская улица, Домодедово, городской округ Домодедово, Московская область, Центральный федеральный округ, 142000, Россия",
        "lat": 55.440466,
        "lng": 37.7630407,
        "percent": "4"
    },
    {
        "name": "Dominos Pizza",
        "address": "Доминос, Бескудниковский проезд, Бескудниковский район, Москва, Центральный федеральный округ, 127474, Россия",
        "lat": 55.8779551,
        "lng": 37.5566484,
        "percent": "4"
    },
    {
        "name": "Окей",
        "address": "Окей полиграфия, улица Лобачика, Сокольники, район Сокольники, Москва, Центральный федеральный округ, 107113, Россия",
        "lat": 55.7880173,
        "lng": 37.6622473,
        "percent": "3.2"
    },
    {
        "name": "Мираторг",
        "address": "Мираторг, Ходынская улица, Пресненский район, Москва, Центральный федеральный округ, 123022, Россия",
        "lat": 55.7701567,
        "lng": 37.5639135,
        "percent": "12"
    },
    {
        "name": "Мираторг",
        "address": "Мираторг, 10 с2, Пресненская набережная, Пресненский район, Москва, Центральный федеральный округ, 123112, Россия",
        "lat": 55.7475109,
        "lng": 37.5345379,
        "percent": "12"
    },
    {
        "name": "Мираторг",
        "address": "Мираторг, 37 с1, 2-я Брестская улица, Пресненский район, Москва, Центральный федеральный округ, 125047, Россия",
        "lat": 55.7733303,
        "lng": 37.585752,
        "percent": "12"
    },
    {
        "name": "Мираторг",
        "address": "Мираторг, 7 с1, 1-й Боткинский проезд, район Беговой, Москва, Центральный федеральный округ, 125284, Россия",
        "lat": 55.784504,
        "lng": 37.5575727,
        "percent": "12"
    },
    {
        "name": "Мираторг",
        "address": "Мираторг, улица Арбат, 36, район Арбат, Москва, Центральный федеральный округ, 119002, Россия",
        "lat": 55.7485978,
        "lng": 37.5882414,
        "percent": "12"
    },
    {
        "name": "Мираторг",
        "address": "Мираторг, 2 к5, Новодмитровская улица, Бутырский район, Москва, Центральный федеральный округ, 127015, Россия",
        "lat": 55.8032287,
        "lng": 37.5911578,
        "percent": "12"
    },
    {
        "name": "Мираторг",
        "address": "Мираторг, 15, улица Демьяна Бедного, район Хорошёво-Мнёвники, Москва, Центральный федеральный округ, 123423, Россия",
        "lat": 55.776917,
        "lng": 37.4875992,
        "percent": "12"
    },
    {
        "name": "Мираторг",
        "address": "Мираторг, 62А, Ленинградский проспект, район Аэропорт, Москва, Центральный федеральный округ, 125190, Россия",
        "lat": 55.8019052,
        "lng": 37.5321078,
        "percent": "12"
    },
    {
        "name": "Мираторг",
        "address": "Мираторг, 4, Большая Филёвская улица, Фили, район Филёвский Парк, Москва, Центральный федеральный округ, 121087, Россия",
        "lat": 55.7537121,
        "lng": 37.5134289,
        "percent": "12"
    },
    {
        "name": "Мираторг",
        "address": "Мираторг, 6 с3, улица Барклая (дублёр), район Филёвский Парк, Москва, Центральный федеральный округ, 121087, Россия",
        "lat": 55.7393149,
        "lng": 37.5068953,
        "percent": "12"
    },
    {
        "name": "Утконос",
        "address": "Утконос, городской округ Мытищи, Московская область, Центральный федеральный округ, Россия",
        "lat": 55.918638,
        "lng": 37.67962535819709,
        "percent": "1"
    },
    {
        "name": "Утконос",
        "address": "Утконос, поселение Сосенское, Москва, Центральный федеральный округ, Россия",
        "lat": 55.55451555,
        "lng": 37.52534573760185,
        "percent": "1"
    },
    {
        "name": "2 Берега",
        "address": "2, улица Зелёные Берега, микрорайон Гостица, Раменское, Раменский городской округ, Московская область, Центральный федеральный округ, 140100, Россия",
        "lat": 55.57785885,
        "lng": 38.2554866,
        "percent": "4"
    }
]